place_id,name,category,latitude,longitude,osm_type,osm_id,osm_url,name_local,name_en,harbour_category,operator,website,phone,vhf_channel,access,fee,capacity,max_draft,max_length,source
1_dead4cd,1,ferry_terminal,40.7441355,13.9393841,node,5292425108,https://www.openstreetmap.org/node/5292425108,1,,,,,,,,,,,,openstreetmap
1sc_zone_41faf05,1SC Zone,anchorage,43.624463,13.4624708,way,308217565,https://www.openstreetmap.org/way/308217565,,,,,,,,,,,,,openstreetmap
2_906c1d0,2,ferry_terminal,40.7442143,13.9392625,node,5292425109,https://www.openstreetmap.org/node/5292425109,2,,,,,,,,,,,,openstreetmap
2c_zone_c0e354c,2C Zone,anchorage,43.6435059,13.4695654,way,308217563,https://www.openstreetmap.org/way/308217563,,,,,,,,,,,,,openstreetmap
3bc_zone_da06f57,3BC Zone,anchorage,43.654407,13.486181,way,308217568,https://www.openstreetmap.org/way/308217568,,,,,,,,,,,,,openstreetmap
4st_zone_e538b5c,4ST Zone,anchorage,43.6468311,13.4264292,way,308217559,https://www.openstreetmap.org/way/308217559,,,,,,,,,,,,,openstreetmap
5t_zone_5a143cf,5T Zone,anchorage,43.6665946,13.4433828,way,308217555,https://www.openstreetmap.org/way/308217555,,,,,,,,,,,,,openstreetmap
6t_zone_b16111f,6T Zone,anchorage,43.7163767,13.5423139,way,308217571,https://www.openstreetmap.org/way/308217571,,,,,,,,,,,,,openstreetmap
a_c523ea5,A,anchorage,45.3216667,14.392,node,8906938196,https://www.openstreetmap.org/node/8906938196,A,,,,,,,,,,,,openstreetmap
abrako_kirol_portua_puerto_deportivo_del_abra_63b8c09,Abrako kirol portua / Puerto Deportivo del Abra,marina,43.3302987,-3.0156501,way,432103022,https://www.openstreetmap.org/way/432103022,Abrako kirol portua / Puerto Deportivo del Abra,,marina,,,,,,,,,,openstreetmap
abri_de_l_olivette_6a0542d,Abri de l'Olivette,marina,43.551549,7.1205417,relation,12907733,https://www.openstreetmap.org/relation/12907733,Abri de l'Olivette,,,,,,,,,,,,openstreetmap
abruzzi_marina_68b67c0,Abruzzi Marina,marina,44.3991242,8.9281301,node,4684382080,https://www.openstreetmap.org/node/4684382080,Abruzzi Marina,,marina,,,,,,,,,,openstreetmap
ac_stupice_91a11e7,AC Stupice,harbour,44.7962352,13.9187533,way,371239554,https://www.openstreetmap.org/way/371239554,AC Stupice,,,,,,,,,,,,openstreetmap
accademia_a_a3cad40,"Accademia ""A""",ferry_terminal,45.4317404,12.3285289,node,695741733,https://www.openstreetmap.org/node/695741733,"Accademia ""A""",,,,,,,,,,,,openstreetmap
accademia_b_103dafb,"Accademia ""B""",ferry_terminal,45.4316374,12.3287135,node,4212293003,https://www.openstreetmap.org/node/4212293003,"Accademia ""B""",,,,,,,,,,,,openstreetmap
acces_ferry_maroc_cafdb8a,accès ferry maroc,ferry_terminal,43.40024,3.7029087,node,4551073437,https://www.openstreetmap.org/node/4551073437,accès ferry maroc,,,gnv,,,,,,,,,openstreetmap
acces_navettes_5ad4105,Accès navettes,harbour,43.5093666,7.0438385,node,9056125403,https://www.openstreetmap.org/node/9056125403,Accès navettes,,,,,,,,,,,,openstreetmap
aci_marina_mali_losinj_53692af,ACI - Marina Mali Losinj,marina,44.5436418,14.4604554,node,573259121,https://www.openstreetmap.org/node/573259121,ACI - Marina Mali Losinj,,marina,,,,,private,,,,,openstreetmap
aci_marina_zut_recepcija_65d39c7,ACI Marina  Žut (Recepcija),marina,43.8828749,15.2847997,node,5133779921,https://www.openstreetmap.org/node/5133779921,ACI Marina  Žut (Recepcija),,,,,,,,,,,,openstreetmap
aci_marina_cres_909b166,ACI Marina Cres,marina,44.9481564,14.414965,way,60501090,https://www.openstreetmap.org/way/60501090,ACI Marina Cres,,marina,Adriatic Croatia International Club,https://www.aci-marinas.com/aci_marina/aci-marina-cres/,+385 51 571-622;+385 98 398-839,17,,,461,,,openstreetmap
aci_marina_jezera_0c128db,ACI Marina Jezera,marina,43.7836627,15.6451524,way,25099391,https://www.openstreetmap.org/way/25099391,ACI Marina Jezera,,marina,Adriatic Croatia International Club,https://www.aci-marinas.com/aci_marina/aci-jezera/,+385 22 439 295,,,,233,,,openstreetmap
aci_marina_milna_de3330d,ACI Marina Milna,marina,43.3261382,16.4479299,way,183653467,https://www.openstreetmap.org/way/183653467,ACI Marina Milna,,marina,Adriatic Croatia International Club,https://www.aci-marinas.com/aci_marina/aci-milna/,+385 21/636306,17,,,183,,,openstreetmap
aci_marina_opatija_2eba372,ACI Marina Opatija,marina,45.3147256,14.2897508,way,109853684,https://www.openstreetmap.org/way/109853684,ACI Marina Opatija,,marina,Adriatic Croatia International Club,https://www.aci-marinas.com/aci_marina/aci-marina-opatija/,+385 51 704 004,,,,281,,,openstreetmap
aci_marina_palmizana_21318a1,ACI marina Palmižana,marina,43.1625123,16.394183,way,619850904,https://www.openstreetmap.org/way/619850904,ACI marina Palmižana,,marina,Adriatic Croatia International Club,https://www.aci-marinas.com/aci_marina/aci-palmizana/,+385 21 744 995,,,,180,,,openstreetmap
aci_marina_piskera_d050ed4,ACI Marina Piškera,marina,43.7589974,15.3454865,way,619833756,https://www.openstreetmap.org/way/619833756,ACI Marina Piškera,,marina,Adriatic Croatia International Club,https://www.aci-marinas.com/aci_marina/aci-piskera/,+385 91 470 0092,17,,,118,,,openstreetmap
aci_marina_pomer_bedd4af,ACI marina Pomer,marina,44.8216141,13.9023336,way,619831605,https://www.openstreetmap.org/way/619831605,ACI marina Pomer,,marina,Adriatic Croatia International Club,https://www.aci-marinas.com/aci_marina/aci-marina-pomer/,+385 52 573 162,,,,296,,,openstreetmap
aci_marina_pula_eab30cd,ACI Marina Pula,marina,44.8730076,13.8449419,way,619774576,https://www.openstreetmap.org/way/619774576,ACI Marina Pula,,marina,Adriatic Croatia International Club,https://www.aci-marinas.com/aci_marina/aci-marina-pula/,+385 52 219 142,,,,194,,,openstreetmap
aci_marina_rab_ea0cb4b,ACI Marina Rab,marina,44.7569677,14.7631222,way,293103061,https://www.openstreetmap.org/way/293103061,ACI Marina Rab,,marina,Adriatic Croatia International Club,https://www.aci-marinas.com/aci_marina/aci-marina-rab/,+385 51 724 023,,,,142,,,openstreetmap
aci_marina_rovinj_7e5cd22,ACI Marina Rovinj,marina,45.0756629,13.6350185,way,619829525,https://www.openstreetmap.org/way/619829525,ACI Marina Rovinj,,marina,Adriatic Croatia International Club,https://www.aci-marinas.com/aci_marina/aci-marina-rovinj/,+385 52 813 133,,,,192,,,openstreetmap
aci_marina_skradin_fb77e8c,ACI Marina Skradin,marina,43.8162363,15.9207269,relation,6627887,https://www.openstreetmap.org/relation/6627887,ACI Marina Skradin,,marina,Adriatic Croatia International Club,https://aci-marinas.com/aci_marina/aci-skradin/,+385 22 771365;+385 98 398848,17,,,180,,70,openstreetmap
aci_marina_split_bc3dd80,ACI Marina Split,marina,43.5026218,16.4307491,way,244608718,https://www.openstreetmap.org/way/244608718,ACI Marina Split,,marina,Adriatic Croatia International Club,https://www.aci-marinas.com/aci_marina/aci-split/,+385 21 398599,17,,,318,,,openstreetmap
aci_marina_supetarska_draga_b97f1e1,ACI Marina Supetarska Draga,marina,44.8032697,14.7253992,way,292552504,https://www.openstreetmap.org/way/292552504,ACI Marina Supetarska Draga,,marina,Adriatic Croatia International Club,https://www.aci-marinas.com/aci_marina/aci-marina-supetarska-draga/,+385 51 776 268,,,,328,,,openstreetmap
aci_marina_trogir_15ef90b,ACI Marina Trogir,marina,43.5138362,16.2481757,way,619844585,https://www.openstreetmap.org/way/619844585,ACI Marina Trogir,,marina,Adriatic Croatia International Club,https://www.aci-marinas.com/aci_marina/aci-trogir/,+385 21 881 544;+385 98 398 849,10,,,174,,,openstreetmap
aci_marina_umag_aeaa2ee,ACI Marina Umag,marina,45.4393553,13.5151208,way,619785648,https://www.openstreetmap.org/way/619785648,ACI Marina Umag,,marina,Adriatic Croatia International Club,https://www.aci-marinas.com/aci_marina/aci-marina-umag/,+385 52 741 066,17,,,475,,,openstreetmap
aci_marina_vodice_1c16739,ACI marina Vodice,marina,43.7575165,15.7785382,way,619855743,https://www.openstreetmap.org/way/619855743,ACI marina Vodice,,marina,Adriatic Croatia International Club,https://www.aci-marinas.com/aci_marina/aci-vodice/,+385 98 398847;+385 22 443086,17,,,273,,,openstreetmap
aci_marina_vrboska_2fec81f,ACI Marina Vrboska,marina,43.1791746,16.6755209,way,619852792,https://www.openstreetmap.org/way/619852792,ACI Marina Vrboska,,marina,Adriatic Croatia International Club,https://www.aci-marinas.com/aci_marina/aci-vrboska/,+385 21 774 018,,,,119,,,openstreetmap
aci_marina_simuni_5765a29,ACI Marina Šimuni,marina,44.4704162,14.9540184,way,619833473,https://www.openstreetmap.org/way/619833473,ACI Marina Šimuni,,,Adriatic Croatia International Club,https://www.aci-marinas.com/aci_marina/aci-simuni/,+385 23 697 457,,,,191,,,openstreetmap
aci_marina_zut_2d24af5,ACI Marina Žut,marina,43.8824925,15.285608,way,126866231,https://www.openstreetmap.org/way/126866231,ACI Marina Žut,,marina,Adriatic Croatia International Club,https://www.aci-marinas.com/aci_marina/aci-zut/,+385 22 7860278,17,,,135,,,openstreetmap
acquamorta_marina_3205931,Acquamorta Marina,marina,40.7920102,14.0425097,node,1605498648,https://www.openstreetmap.org/node/1605498648,Acquamorta Marina,,marina,Comune di Monte di Procida,,,,,yes,700,,,openstreetmap
acquatica_0c6c681,Acquatica,marina,40.5609143,8.3116848,way,262206958,https://www.openstreetmap.org/way/262206958,Acquatica,,marina,,https://aquaticasardegna.it/,,,,,60,,,openstreetmap
adina_35d1087,Adina,marina,37.648594,12.5843057,way,79095713,https://www.openstreetmap.org/way/79095713,Adina,,,,,+39 0923 906700,,,,200,,,openstreetmap
admiral_1cb15e3,Admiral,marina,45.3273399,14.3009425,way,109869262,https://www.openstreetmap.org/way/109869262,Admiral,,marina,,,,,,,,,,openstreetmap
adriatic_container_terminal_b0ba25c,Adriatic Container Terminal,commercial_port,43.6182711,13.497804,relation,10579798,https://www.openstreetmap.org/relation/10579798,Adriatic Container Terminal,,,,https://www.actml.it/,,,,,,,,openstreetmap
agana_1cd9510,Agana,marina,43.5130834,16.1129309,way,183653351,https://www.openstreetmap.org/way/183653351,Agana,,marina,,,,,,,,,,openstreetmap
aire_publique_de_carenage_be03cd0,Aire Publique de Carenage,commercial_port,43.120374,6.3642174,way,645979066,https://www.openstreetmap.org/way/645979066,Aire Publique de Carenage,,,,,,,,,,,,openstreetmap
aire_publique_de_carenage_75c7f55,Aire publique de carénage,commercial_port,43.4229001,3.6058691,way,976300627,https://www.openstreetmap.org/way/976300627,Aire publique de carénage,,,,,,,,,,,,openstreetmap
alassio_marina_5cb0b9c,Alassio Marina,marina,44.0189931,8.1939127,node,4683710044,https://www.openstreetmap.org/node/4683710044,Alassio Marina,,,,,,,,,,,,openstreetmap
alcaidesa_marina_9d5b8e0,Alcaidesa Marina,marina,36.1585508,-5.3572853,way,449757981,https://www.openstreetmap.org/way/449757981,Alcaidesa Marina,,marina,Alcaidesa Marina,,,,,yes,,,,openstreetmap
alcaidesa_varadero_6b458be,Alcaidesa Varadero,commercial_port,36.1592806,-5.3575878,way,1254615022,https://www.openstreetmap.org/way/1254615022,Alcaidesa Varadero,,,,,,,,,,,,openstreetmap
alcanada_7eda527,Alcanada,anchorage,39.8369999,3.1641247,node,3985602181,https://www.openstreetmap.org/node/3985602181,Alcanada,,,,,,,,,,,,openstreetmap
alcudiamar_d57724b,Alcudiamar,marina,39.8384788,3.1338512,way,194088946,https://www.openstreetmap.org/way/194088946,Alcudiamar,,marina,,https://www.alcudiamar.es/,+34 971 54 60 00,9,,,,,,openstreetmap
alcantara_charter_ef9122f,Alcántara Charter,ferry_terminal,36.3951242,-6.2091643,node,13504999501,https://www.openstreetmap.org/node/13504999501,Alcántara Charter,,,,,,,,,,,,openstreetmap
alcudia_f3cd057,Alcúdia,ferry_terminal,39.8355269,3.1411868,node,11598994376,https://www.openstreetmap.org/node/11598994376,Alcúdia,,,,,,,,,,,,openstreetmap
alcudia_pins_1751638,Alcúdia Pins,ferry_terminal,39.7896084,3.1300449,node,7874815159,https://www.openstreetmap.org/node/7874815159,Alcúdia Pins,,,,,,,,,,,,openstreetmap
alger_42a9a23,Alger,ferry_terminal,36.7782253,3.0621596,node,3152278240,https://www.openstreetmap.org/node/3152278240,Alger,Algiers,,ENTMV,,,,,,,,,openstreetmap
alghero_ser_mar_27bb7c8,Alghero Ser-Mar,marina,40.5650768,8.3110403,node,4696148593,https://www.openstreetmap.org/node/4696148593,Alghero Ser-Mar,,marina,,,,,,,,,,openstreetmap
alicante_isla_de_tabarca_8745c9b,Alicante-Isla de Tabarca,ferry_terminal,38.3420529,-0.4848201,node,7029410719,https://www.openstreetmap.org/node/7029410719,Alicante-Isla de Tabarca,,,,,,,,,,,,openstreetmap
alicudi_fba63fb,Alicudi,marina,38.5337934,14.3608803,node,12153328154,https://www.openstreetmap.org/node/12153328154,Alicudi,,marina,,,,,,,,,,openstreetmap
aliscafo_5bd4898,Aliscafo,ferry_terminal,42.8116585,10.3234383,node,12196980333,https://www.openstreetmap.org/node/12196980333,Aliscafo,,,Toremar,,,,,,,,,openstreetmap
amalfi_harbour_3c1fa60,Amalfi Harbour,marina,40.6311134,14.5996179,node,4689647639,https://www.openstreetmap.org/node/4689647639,Amalfi Harbour,,,,,,,,,,,,openstreetmap
amarin_cfd85d2,Amarin,ferry_terminal,45.1029997,13.620256,node,523001678,https://www.openstreetmap.org/node/523001678,Amarin,,,,,,,,,,,,openstreetmap
amici_del_po_996008c,Amici del Po,marina,45.1445403,9.2292807,node,3120532520,https://www.openstreetmap.org/node/3120532520,Amici del Po,,marina,,,,,,,,,,openstreetmap
amico_co_eb0edb1,Amico & Co.,marina,44.3951224,8.9331717,way,237728671,https://www.openstreetmap.org/way/237728671,Amico & Co.,,marina,,http://www.amico.it/,,,,,,,,openstreetmap
anchorage_area_6deb5e5,Anchorage Area,commercial_port,36.8403255,5.8236621,way,1206214994,https://www.openstreetmap.org/way/1206214994,Anchorage Area,,,Djandjan Port,,,,,,,,,openstreetmap
anchorage_jadriscica_ingemar_cba0d35,Anchorage Jadriscica Ingemar,marina,44.6165531,14.5010148,way,845077280,https://www.openstreetmap.org/way/845077280,,,marina,,www.ingemar.hr,+3859890957477,,,,,,,openstreetmap
ancien_port_38f0aef,Ancien Port,marina,43.1369892,6.3722177,way,1147998830,https://www.openstreetmap.org/way/1147998830,Ancien Port,,marina,,,,,,,,,,openstreetmap
ancona_b897caf,Ancona,ferry_terminal,43.6174908,13.5057586,node,534965622,https://www.openstreetmap.org/node/534965622,Ancona,,,,,,,,,,,,openstreetmap
ancora_yacht_club_small_harbour_a81faf8,Ancora Yacht Club Small Harbour,marina,40.959193,8.2191876,node,4690772759,https://www.openstreetmap.org/node/4690772759,Ancora Yacht Club Small Harbour,,,,,,,,,,,,openstreetmap
andora_marina_1a9ee4e,Andora Marina,marina,43.9505151,8.158555,node,4683673955,https://www.openstreetmap.org/node/4683673955,Andora Marina,,,,,,,,,,,,openstreetmap
andrija_5e8add5,Andrija,marina,43.8258206,15.2758046,node,7737063356,https://www.openstreetmap.org/node/7737063356,,,marina_no_facilities,,,+385 98 485243,,,,,,,openstreetmap
anglet_brise_lames_a5d05d5,Anglet Brise Lames,ferry_terminal,43.5268429,-1.5122821,node,6705242040,https://www.openstreetmap.org/node/6705242040,Anglet Brise Lames,,,,https://www.txiktxak.fr/,,,,,,,,openstreetmap
anguillara_sabazia_8a6fd3c,Anguillara Sabazia,ferry_terminal,42.0929108,12.2676718,node,1845160700,https://www.openstreetmap.org/node/1845160700,Anguillara Sabazia,,,,,,,,,,,,openstreetmap
ankerplatz_ilovik_1d5c01f,Ankerplatz Ilovik,marina,44.4630856,14.5512533,node,976085806,https://www.openstreetmap.org/node/976085806,Ankerplatz Ilovik,,marina,,https://www.ilovik.hr/kontakt,,,,,,,,openstreetmap
annaba_805b688,Annaba,ferry_terminal,36.8967968,7.7646249,node,66891736,https://www.openstreetmap.org/node/66891736,Annaba,Annaba,,,,,,,,,,,openstreetmap
anse_du_castellan_94d195c,Anse du Castellan,marina,43.5190312,4.9880518,node,8727788734,https://www.openstreetmap.org/node/8727788734,Anse du Castellan,,marina,,,,,,,,,,openstreetmap
antica_pescheria_di_stra_92179a9,Antica Pescheria di Stra,marina,45.4085471,12.0058027,node,4969300121,https://www.openstreetmap.org/node/4969300121,Antica Pescheria di Stra,,marina,,,,,,no,,,,openstreetmap
antigua_estacion_maritima_13e95f5,Antigua Estación Marítima,ferry_terminal,35.2931466,-2.930637,way,31677270,https://www.openstreetmap.org/way/31677270,Antigua Estación Marítima,,,,,,,,,,,,openstreetmap
anzio_49471fa,Anzio,ferry_terminal,41.4448274,12.6309049,node,336238669,https://www.openstreetmap.org/node/336238669,Anzio,,,,,,,,,,,,openstreetmap
apm_terminal_algeciras_25c8088,APM Terminal Algeciras,commercial_port,36.1409894,-5.4383146,way,274800035,https://www.openstreetmap.org/way/274800035,APM Terminal Algeciras,,,,https://www.apmterminals.com/en/algeciras,,,,,,,,openstreetmap
apm_terminals_aabd8b0,APM Terminals,commercial_port,39.4526189,-0.3173326,way,505250936,https://www.openstreetmap.org/way/505250936,APM Terminals,,,,,,,,,,,,openstreetmap
apm_terminals_bb86752,APM Terminals,commercial_port,41.3529365,2.1655871,way,618624031,https://www.openstreetmap.org/way/618624031,APM Terminals,,,APM Terminals,,,,,,,,,openstreetmap
approdo_f45da2c,approdo,ferry_terminal,40.9654443,13.0487186,node,3501594074,https://www.openstreetmap.org/node/3501594074,approdo,,,Franco,,,,,,,,,openstreetmap
approdo_a459883,Approdo,ferry_terminal,45.4180145,9.0695831,node,10279681641,https://www.openstreetmap.org/node/10279681641,Approdo,,,,,,,,,,,,openstreetmap
approdo_di_casuzze_99c941d,Approdo di Casuzze,marina,36.7841043,14.5251932,way,416769986,https://www.openstreetmap.org/way/416769986,Approdo di Casuzze,,,,,,,,,60,,,openstreetmap
approdo_di_halaesa_a0b27c7,Approdo di Halaesa,marina,38.011928,14.2705404,node,13789922395,https://www.openstreetmap.org/node/13789922395,Approdo di Halaesa,,marina,,https://www.apprododihalaesa.it,+39 351 984 1206,,,yes,,,,openstreetmap
approdo_san_francesco_ed6d29d,Approdo San Francesco,harbour,38.2100992,15.5629221,node,1753698245,https://www.openstreetmap.org/node/1753698245,Approdo San Francesco,,roro,,,,,,,,,,openstreetmap
approdo_santa_lucia_f21b9be,Approdo Santa Lucia,marina,37.0690199,15.2911542,node,5088756480,https://www.openstreetmap.org/node/5088756480,Approdo Santa Lucia,,marina,,,+39 327 9388627,,,,,,,openstreetmap
approdo_tremestieri_24eee8f,Approdo Tremestieri,harbour,38.1323684,15.5254462,node,1346235861,https://www.openstreetmap.org/node/1346235861,Approdo Tremestieri,,roro,,,,,,,,,,openstreetmap
approdo_turistico_brentamare_5b4d60d,Approdo turistico BrentaMare,marina,45.1778245,12.2842015,way,114573959,https://www.openstreetmap.org/way/114573959,,,marina,,https://www.isolaverde.net/brentamare/index.html,,,,,,6,12,openstreetmap
aquavision_0f23bec,Aquavision,ferry_terminal,42.7431119,10.2392803,node,10054137552,https://www.openstreetmap.org/node/10054137552,Aquavision,,,,,,,,,,,,openstreetmap
ar_nav_1c75894,Ar Nav,marina,44.0627282,9.9707357,way,430206446,https://www.openstreetmap.org/way/430206446,Ar Nav,,,,http://www.ar-nav.it/,,,,,,,,openstreetmap
arbatax_d121871,Arbatax,harbour,39.9423399,9.7038231,node,5100311408,https://www.openstreetmap.org/node/5100311408,,,ferry,,https://www.marinadiarbatax.it/,,,,,,,,openstreetmap
area_spinelli_f7caf12,Area Spinelli,commercial_port,44.402219,8.902431,way,1068112235,https://www.openstreetmap.org/way/1068112235,Area Spinelli,,,,,,,,,,,,openstreetmap
arenal_d_en_casat_1a0ba71,Arenal d'en Casat,anchorage,39.7519793,3.194523,node,3985602173,https://www.openstreetmap.org/node/3985602173,Arenal d'en Casat,,,,,,,,,,,,openstreetmap
arenal_d_en_castell_ade4926,Arenal d'en Castell,anchorage,40.0239324,4.1831116,node,13391403697,https://www.openstreetmap.org/node/13391403697,Arenal d'en Castell,,,,,,,,,,,,openstreetmap
arenal_de_son_saura_3d2e672,Arenal de Son Saura,anchorage,40.0363687,4.1628882,node,13391403699,https://www.openstreetmap.org/node/13391403699,Arenal de Son Saura,,,,,,,,,,,,openstreetmap
arma_di_taggia_3a67e8d,Arma di Taggia,marina,43.8323491,7.8586131,node,391457392,https://www.openstreetmap.org/node/391457392,Arma di Taggia,,marina,,,,,,,,,,openstreetmap
armintza_portua_4ade925,Armintza Portua,marina,43.4327374,-2.8988864,node,5670224600,https://www.openstreetmap.org/node/5670224600,Armintza Portua,,marina,,,,,,,,,,openstreetmap
arredamento_navale_d7a98ec,Arredamento Navale,marina,43.8760607,10.2555889,node,5397221865,https://www.openstreetmap.org/node/5397221865,Arredamento Navale,,marina,,,,,,,,,,openstreetmap
arsenale_a_2bc3b80,"Arsenale ""A""",ferry_terminal,45.43275,12.3485464,node,4212293026,https://www.openstreetmap.org/node/4212293026,"Arsenale ""A""",,,,,,,,,,,,openstreetmap
arsenale_b_c48051f,"Arsenale ""B""",ferry_terminal,45.4328756,12.3483338,node,2714417418,https://www.openstreetmap.org/node/2714417418,"Arsenale ""B""",,,,,,,,,,,,openstreetmap
asd_amici_del_mare_50cb095,ASD Amici del Mare,marina,42.808756,10.1950924,way,556300535,https://www.openstreetmap.org/way/556300535,ASD Amici del Mare,,marina,Comune di Marciana Marina,,,,,,,,,openstreetmap
aspretto_2fecd9b,Aspretto,marina,41.9217437,8.7635145,way,1089005034,https://www.openstreetmap.org/way/1089005034,Aspretto,,marina,,,,,,,,,,openstreetmap
associacio_front_al_mar_8f4766a,Associació Front al Mar,marina,41.8456284,3.1267707,node,4269113949,https://www.openstreetmap.org/node/4269113949,Associació Front al Mar,,marina,,,,,,,,,,openstreetmap
atalayon_85ae99a,Atalayon,marina,35.2166628,-2.9030319,node,3168650069,https://www.openstreetmap.org/node/3168650069,Atalayon,,,,,,,,,,,,openstreetmap
aterco_db0ce73,ATERCO,commercial_port,36.6883571,3.0819798,way,328287375,https://www.openstreetmap.org/way/328287375,ATERCO,,,,,,,,,,,,openstreetmap
atraque_3_3ddd880,Atraque 3,ferry_terminal,36.1313115,-5.4382718,node,240947699,https://www.openstreetmap.org/node/240947699,Atraque 3,Berth 3,,Autoridad Portuaria de la Bahía de Algeciras,,,,,,,,,openstreetmap
atraque_4_d767728,Atraque 4,ferry_terminal,36.13103,-5.438023,node,6286206143,https://www.openstreetmap.org/node/6286206143,Atraque 4,Berth 4,,Autoridad Portuaria de la Bahía de Algeciras,,,,,,,,,openstreetmap
atraque_5_ec3de0f,Atraque 5,ferry_terminal,36.1305225,-5.4375538,node,6286206184,https://www.openstreetmap.org/node/6286206184,Atraque 5,Berth 5,,Autoridad Portuaria de la Bahía de Algeciras,,,,,,,,,openstreetmap
atraque_6_abfdb7f,Atraque 6,ferry_terminal,36.1299006,-5.4377973,node,12146213764,https://www.openstreetmap.org/node/12146213764,Atraque 6,Berth 6,,Autoridad Portuaria de la Bahía de Algeciras,,,,,,,,,openstreetmap
atraque_7_a_761bcb0,Atraque 7 A,ferry_terminal,36.129739,-5.4382596,node,6273692416,https://www.openstreetmap.org/node/6273692416,Atraque 7 A,Berth 7 A,,Autoridad Portuaria de la Bahía de Algeciras,,,,,,,,,openstreetmap
atraque_7_b_5b11cf0,Atraque 7 B,ferry_terminal,36.1289953,-5.4395684,node,6286206997,https://www.openstreetmap.org/node/6286206997,Atraque 7 B,Berth 7 B,,Autoridad Portuaria de la Bahía de Algeciras,,,,,,,,,openstreetmap
atraque_8_d5fa051,Atraque 8,ferry_terminal,36.1287776,-5.4399399,node,6286206996,https://www.openstreetmap.org/node/6286206996,Atraque 8,Berth 8,,Autoridad Portuaria de la Bahía de Algeciras,,,,,,,,,openstreetmap
attracco_del_museo_della_navigazione_2700635,Attracco del Museo della Navigazione,marina,45.2871066,11.7878288,node,4072137855,https://www.openstreetmap.org/node/4072137855,Attracco del Museo della Navigazione,,marina,,,,,,,,,,openstreetmap
attracco_isola_di_dino_dc5895d,Attracco Isola di Dino,marina,39.8747087,15.7796299,node,13075095788,https://www.openstreetmap.org/node/13075095788,Attracco Isola di Dino,,marina,,,,,,,,,,openstreetmap
autoterminal_sa_23602ac,"Autoterminal, SA",commercial_port,41.32772,2.1460887,way,619514181,https://www.openstreetmap.org/way/619514181,"Autoterminal, SA",,,,,,,,,,,,openstreetmap
avant_port_joliette_ea43937,Avant-port Joliette,harbour,43.2970608,5.3569358,node,1360889640,https://www.openstreetmap.org/node/1360889640,Avant-port Joliette,,,,,,,,,,,,openstreetmap
avant_port_nord_5697ee3,Avant-port Nord,harbour,43.3479307,5.3251319,relation,10793150,https://www.openstreetmap.org/relation/10793150,Avant-port Nord,,container,,,,,,,,,,openstreetmap
aventura_sierra_norte_403e18c,Aventura Sierra Norte,marina,40.9900262,-3.6357355,node,6712335935,https://www.openstreetmap.org/node/6712335935,Aventura Sierra Norte,,,,,,,,,,,,openstreetmap
ayala_43f6f80,Ayala,marina,45.3197524,8.9099695,way,129842118,https://www.openstreetmap.org/way/129842118,Ayala,,marina,,,,,,,,,,openstreetmap
azeffoun_71c8f0e,Azeffoun,ferry_terminal,36.9023954,4.420824,node,4348069816,https://www.openstreetmap.org/node/4348069816,Azeffoun,Azeffoun,,Entreprise nationale de transport maritime de voyageurs,,,,,,,,,openstreetmap
b_9e6cfeb,B,anchorage,45.3048333,14.4353333,node,8906938195,https://www.openstreetmap.org/node/8906938195,B,,,,,,,,,,,,openstreetmap
bac_de_blaye_lamarque_15bfd0c,Bac de Blaye-Lamarque,ferry_terminal,45.1230323,-0.6655415,node,1538127120,https://www.openstreetmap.org/node/1538127120,Bac de Blaye-Lamarque,,,Département de la Gironde,,,,,,,,,openstreetmap
bac_du_rocher_des_doms_eec87e2,Bac du Rocher des Doms,ferry_terminal,43.9540855,4.8087586,node,302666382,https://www.openstreetmap.org/node/302666382,Bac du Rocher des Doms,,,,,,,,,,,,openstreetmap
bacini_9e3dd14,Bacini,ferry_terminal,45.439226,12.3573109,node,1996193041,https://www.openstreetmap.org/node/1996193041,Bacini,,,,,,,,,,,,openstreetmap
badia_de_fornells_dcd95a2,Badia de Fornells,anchorage,40.0458353,4.1317211,node,13391403700,https://www.openstreetmap.org/node/13391403700,Badia de Fornells,,,,,,,,,,,,openstreetmap
badia_de_tossa_aa12367,Badia de Tossa,marina,41.7198205,2.9373248,way,623566825,https://www.openstreetmap.org/way/623566825,Badia de Tossa,,marina,,,,,,,,,,openstreetmap
badino_small_harbour_05c677c,Badino Small Harbour,marina,41.2878238,13.1964884,node,4688851292,https://www.openstreetmap.org/node/4688851292,Badino Small Harbour,,,,,,,,,,,,openstreetmap
bagni_castelluccio_be83406,Bagni Castelluccio,marina,44.4236985,8.8025589,way,802271822,https://www.openstreetmap.org/way/802271822,Bagni Castelluccio,,marina,,http://www.bagnicastelluccio.it/,,,,,,,,openstreetmap
baia_porto_turistico_marina_95e9b77,Baia Porto Turistico Marina,marina,40.8181127,14.0716839,node,4212201362,https://www.openstreetmap.org/node/4212201362,Baia Porto Turistico Marina,,,,,,,,,,,,openstreetmap
baia_vallugola_bea5075,Baia Vallugola,marina,43.9649244,12.7844622,node,2429114665,https://www.openstreetmap.org/node/2429114665,Baia Vallugola,,marina,,http://www.vallugola.it/,,,,,,,,openstreetmap
baia_verde_marina_5a8ef11,Baia Verde Marina,marina,43.7988662,7.7075455,node,4683390662,https://www.openstreetmap.org/node/4683390662,Baia Verde Marina,,marina,,,,,,,,,,openstreetmap
balestrate_marina_8fd8006,Balestrate Marina,marina,38.0547327,13.0026955,node,2662975874,https://www.openstreetmap.org/node/2662975874,Balestrate Marina,,,,,,,,,,,,openstreetmap
balearia_port_c99170e,Baleària Port,ferry_terminal,38.8455053,0.1137596,way,133865773,https://www.openstreetmap.org/way/133865773,Baleària Port,,,Baleària,http://www.baleariaport.com,,,,,,,,openstreetmap
banchina_di_punta_secca_san_domino_eae3e78,Banchina di Punta Secca San Domino,ferry_terminal,42.1118902,15.4757087,node,1223448018,https://www.openstreetmap.org/node/1223448018,Banchina di Punta Secca San Domino,,,,,,,,,,,,openstreetmap
banchina_rinfuse_ba5c59c,Banchina rinfuse,commercial_port,39.2158296,9.0600207,way,256856548,https://www.openstreetmap.org/way/256856548,Banchina rinfuse,,,,,,,,,,,,openstreetmap
barca_de_candespina_f4163e4,Barca de Candespina,ferry_terminal,41.744832,-1.024025,way,1421352357,https://www.openstreetmap.org/way/1421352357,Barca de Candespina,,,,,,,,,,,,openstreetmap
barca_del_castellar_9d0b7a5,Barca del Castellar,ferry_terminal,41.775643,-1.0590035,way,1421352872,https://www.openstreetmap.org/way/1421352872,Barca del Castellar,,,,,,,,,,,,openstreetmap
barca_pasaje_9afcd2a,Barca pasaje,ferry_terminal,39.8530091,-4.0205116,node,4182177809,https://www.openstreetmap.org/node/4182177809,Barca pasaje,,,,,,,,,,,,openstreetmap
barcaggio_b2f283a,Barcaggio,marina,43.006519,9.4022682,way,303488742,https://www.openstreetmap.org/way/303488742,Barcaggio,,marina,,,,,,,,,,openstreetmap
barcares_yachting_546672d,Barcares Yachting,commercial_port,42.8038837,3.0313561,way,694601921,https://www.openstreetmap.org/way/694601921,Barcares Yachting,,,,,,,,,,,,openstreetmap
barcelona_c00bafe,Barcelona,ferry_terminal,41.3673805,2.1765375,node,3581051227,https://www.openstreetmap.org/node/3581051227,Barcelona,,,,,,,,,,,,openstreetmap
barco_de_pasaia_efd2f1b,Barco de Pasaia,ferry_terminal,43.3262782,-1.921615,node,2054218739,https://www.openstreetmap.org/node/2054218739,Barco de Pasaia,,,,,,,,,,,,openstreetmap
bardalato_marina_74a3b49,Bardalato Marina,marina,38.5920223,16.5707794,node,1523249369,https://www.openstreetmap.org/node/1523249369,Bardalato Marina,,marina,,,,,,,,,,openstreetmap
base_du_lac_cnasp_f98ef1a,Base du Lac CNASP,marina,44.5472253,6.4649006,node,2394523412,https://www.openstreetmap.org/node/2394523412,Base du Lac CNASP,,marina,Club Nautique Alpin Serre Ponçon,,,,,yes,,,,openstreetmap
base_du_plan_d_eau_cnasp_b2c305f,Base du Plan d'Eau CNASP,marina,44.5485594,6.4673905,node,2394523406,https://www.openstreetmap.org/node/2394523406,Base du Plan d'Eau CNASP,,marina,Club Nautique Alpin Serre Ponçon,,,,,yes,,,,openstreetmap
base_fluviale_le_somail_1283de6,Base fluviale Le Somail,marina,43.2672439,2.9034181,node,1126308171,https://www.openstreetmap.org/node/1126308171,Base fluviale Le Somail,,marina,,,+33 4 68 46 92 09,,,,,,,openstreetmap
base_nautique_de_chanteloube_42fc6cf,Base nautique de Chanteloube,marina,44.5116994,6.3079019,node,5754124851,https://www.openstreetmap.org/node/5754124851,Base nautique de Chanteloube,,marina,,,,,,yes,,,,openstreetmap
base_nautique_de_garabit_9c5a8e8,Base nautique de Garabit,marina,44.973446,3.1617883,node,2397832855,https://www.openstreetmap.org/node/2397832855,Base nautique de Garabit,,marina,,,,,,,,,,openstreetmap
base_nautique_municipale_c335f08,Base Nautique Municipale,marina,43.3880676,4.8529011,way,128884055,https://www.openstreetmap.org/way/128884055,Base Nautique Municipale,,marina,,,,,,,,,,openstreetmap
base_nautique_municipale_de_corbiere_71b47bd,Base nautique municipale de Corbière,marina,43.3582728,5.2926316,node,1362243768,https://www.openstreetmap.org/node/1362243768,Base nautique municipale de Corbière,,marina,,,,,,,,,,openstreetmap
bassin_aux_petroles_61bf3b6,Bassin aux Pétroles,marina,43.3999702,3.704265,node,3152120582,https://www.openstreetmap.org/node/3152120582,Bassin aux Pétroles,,marina,,,,,,,,,,openstreetmap
bassin_berouard_9e3040e,Bassin Bérouard,marina,43.1755365,5.6118122,node,7312052614,https://www.openstreetmap.org/node/7312052614,Bassin Bérouard,,,,,,,,,,,,openstreetmap
bassin_colbert_103a30e,Bassin Colbert,marina,43.4005147,3.7089911,node,3152122867,https://www.openstreetmap.org/node/3152122867,Bassin Colbert,,marina,,,,,,,,,,openstreetmap
bassin_d_arenc_2ef6094,Bassin d'Arenc,harbour,43.3140298,5.3607623,relation,10793149,https://www.openstreetmap.org/relation/10793149,Bassin d'Arenc,,,,,,,,,,,,openstreetmap
bassin_d_honneur_6d84e20,Bassin d'Honneur,marina,43.1215814,6.3643522,way,609505843,https://www.openstreetmap.org/way/609505843,Bassin d'Honneur,,,,,,,,,,,,openstreetmap
bassin_de_la_grande_joliette_23b7f1b,Bassin de la Grande Joliette,harbour,43.304981,5.3612578,relation,10793152,https://www.openstreetmap.org/relation/10793152,Bassin de la Grande Joliette,,,,,,,,,,,,openstreetmap
bassin_de_la_pinede_edce811,Bassin de la Pinède,harbour,43.3264774,5.3498215,relation,10793139,https://www.openstreetmap.org/relation/10793139,Bassin de la Pinède,,container,,,,,,,,,,openstreetmap
bassin_de_la_tour_rouge_a5944fb,Bassin de la Tour Rouge,marina,43.6923896,7.2891903,way,268767309,https://www.openstreetmap.org/way/268767309,Bassin de la Tour Rouge,,marina,,,,,,,,,,openstreetmap
bassin_de_radoub_e7e3ac9,Bassin de Radoub,harbour,43.3227639,5.360284,way,308613702,https://www.openstreetmap.org/way/308613702,Bassin de Radoub,,,,,,,,,,,,openstreetmap
bassin_de_remisage_53103c5,Bassin de Remisage,harbour,43.3340599,5.3476616,relation,10793141,https://www.openstreetmap.org/relation/10793141,Bassin de Remisage,,container,,,,,,,,,,openstreetmap
bassin_des_amiraux_6c57692,Bassin des Amiraux,marina,43.6941693,7.2845488,way,268769197,https://www.openstreetmap.org/way/268769197,Bassin des Amiraux,,marina,,,,,,,,,,openstreetmap
bassin_des_capucins_419c661,Bassin des Capucins,marina,43.1779737,5.6121662,node,7312052615,https://www.openstreetmap.org/node/7312052615,Bassin des Capucins,,,,,,,,,,,,openstreetmap
bassin_du_chateau_8642eef,Bassin du Chateau,marina,43.1371084,6.3702774,way,1147998832,https://www.openstreetmap.org/way/1147998832,Bassin du Chateau,,marina,,,,,,,,,,openstreetmap
bassin_du_commerce_77e86c0,Bassin du Commerce,marina,43.6927836,7.2868877,way,268768230,https://www.openstreetmap.org/way/268768230,Bassin du Commerce,,marina,,,,,,,,,,openstreetmap
bassin_du_midi_7e48a1d,Bassin du Midi,marina,43.4129295,3.7041224,way,463228128,https://www.openstreetmap.org/way/463228128,Bassin du Midi,,marina,,,,,,yes,,,,openstreetmap
bassin_du_mole_i_492812e,Bassin du Môle I,harbour,43.353586,5.325235,relation,10793146,https://www.openstreetmap.org/relation/10793146,Bassin du Môle I,,,,,,,,,,,,openstreetmap
bassin_du_president_wilson_d49db54,Bassin du Président Wilson,harbour,43.3323705,5.3455063,relation,10793142,https://www.openstreetmap.org/relation/10793142,Bassin du Président Wilson,,container,,,,,,,,,,openstreetmap
bassin_interieur_paul_riquet_1d0153f,Bassin intérieur Paul Riquet,marina,43.5318692,3.9212806,way,9399182,https://www.openstreetmap.org/way/9399182,Bassin intérieur Paul Riquet,,,,https://palavaslesflots.com/view/2421-port-fluvial-paul-riquet.html,,,,,,,,openstreetmap
bassin_lympia_54b86e3,Bassin Lympia,marina,43.6967503,7.2850215,way,268770034,https://www.openstreetmap.org/way/268770034,Bassin Lympia,,marina,,,,,,,,,,openstreetmap
bassin_leon_gourret_b81078a,Bassin Léon Gourret,harbour,43.3399941,5.3359569,relation,10793144,https://www.openstreetmap.org/relation/10793144,Bassin Léon Gourret,,container,,,,,,,,,,openstreetmap
bassin_mirabeau_692ca33,Bassin Mirabeau,harbour,43.3456662,5.3352996,relation,10793145,https://www.openstreetmap.org/relation/10793145,Bassin Mirabeau,,container,,,,,,,,,,openstreetmap
bassin_national_bc32843,Bassin National,harbour,43.3201117,5.3557818,way,308613007,https://www.openstreetmap.org/way/308613007,Bassin National,,,,,,,,,,,,openstreetmap
bassin_orsetti_49c452a,Bassin Orsetti,marina,43.4031989,3.7037768,node,3152087469,https://www.openstreetmap.org/node/3152087469,Bassin Orsetti,,marina,,,,,,,,,,openstreetmap
bastia_vieux_port_f3f1fe3,Bastia Vieux Port,marina,42.6948455,9.451999,relation,6180432,https://www.openstreetmap.org/relation/6180432,Bastia Vieux Port,Old Port of Bastia,marina,,https://www.portidicorsica.com/vieux-port-bastia,+33 4 95 31 31 10,,,,,,,openstreetmap
bastia_savona_84b62d8,Bastia-Savona,ferry_terminal,44.2627663,8.4496538,node,12179824208,https://www.openstreetmap.org/node/12179824208,Bastia-Savona,,,Corsica Ferries,,,,,,,,,openstreetmap
batalaza_116bde6,Batalaža,marina,44.0618116,15.2109398,way,1426026919,https://www.openstreetmap.org/way/1426026919,Batalaža,,marina,,,,,,,,,,openstreetmap
bateau_hendaye_hondarribia_7262654,Bateau Hendaye - Hondarribia,ferry_terminal,43.3702257,-1.7851785,node,3832314498,https://www.openstreetmap.org/node/3832314498,Bateau Hendaye - Hondarribia,Hendaia - Hondarribia Boat,,,,,,,,,,,openstreetmap
bateau_pirate_hammamet_bf5066d,Bateau Pirate Hammamet,ferry_terminal,36.3712061,10.5469061,node,6312464546,https://www.openstreetmap.org/node/6312464546,Bateau Pirate Hammamet,,,,,,,,,,,,openstreetmap
battello_5a8c559,Battello,ferry_terminal,40.3178572,15.1087073,node,1813536897,https://www.openstreetmap.org/node/1813536897,Battello,,,,,,,,,,,,openstreetmap
baska_fd9721b,Baška,ferry_terminal,44.9690568,14.7625287,node,2406884884,https://www.openstreetmap.org/node/2406884884,Baška,,,,,,,,,,,,openstreetmap
belvedere_marittimo_157b1a2,Belvedere Marittimo,marina,39.6161661,15.8524352,node,4690506935,https://www.openstreetmap.org/node/4690506935,Belvedere Marittimo,,,,,,,,,,,,openstreetmap
berth_1_8949e87,Berth 1,ferry_terminal,35.8817733,-5.514757,node,11302159054,https://www.openstreetmap.org/node/11302159054,Berth 1,,,,,,,,,,,,openstreetmap
berth_2_867a9fb,Berth 2,ferry_terminal,35.8800392,-5.5145876,node,11596124263,https://www.openstreetmap.org/node/11596124263,Berth 2,,,,,,,,,,,,openstreetmap
berth_3_58c1bef,Berth 3,ferry_terminal,35.8796966,-5.5146868,node,11596124264,https://www.openstreetmap.org/node/11596124264,Berth 3,,,,,,,,,,,,openstreetmap
berth_4_719bf17,Berth 4,ferry_terminal,35.8779944,-5.5166219,node,11596124265,https://www.openstreetmap.org/node/11596124265,Berth 4,,,,,,,,,,,,openstreetmap
berth_5_a98a2e0,Berth 5,ferry_terminal,35.8778112,-5.5169817,node,11302159052,https://www.openstreetmap.org/node/11302159052,Berth 5,,,,,,,,,,,,openstreetmap
berth_6_4f684ba,Berth 6,ferry_terminal,35.8769122,-5.5189891,node,3442699400,https://www.openstreetmap.org/node/3442699400,Berth 6,,,,,,,,,,,,openstreetmap
berth_7_0163f95,Berth 7,ferry_terminal,35.8768015,-5.5194087,node,11596038569,https://www.openstreetmap.org/node/11596038569,Berth 7,,,,,,,,,,,,openstreetmap
berth_8_192b6fa,Berth 8,ferry_terminal,35.8766826,-5.5209048,node,11596022362,https://www.openstreetmap.org/node/11596022362,Berth 8,,,,,,,,,,,,openstreetmap
becko_pristaniste_2c46ef6,Bečko pristanište,commercial_port,45.3277607,14.4342728,way,1076613976,https://www.openstreetmap.org/way/1076613976,Bečko pristanište,,,,,,,,,,,,openstreetmap
bilbao_port_638e5fb,Bilbao Port,harbour,43.3466906,-3.0526609,way,110020916,https://www.openstreetmap.org/way/110020916,Bilbao Port,,,,http://www.bilbaoport.es,,,,,,,,openstreetmap
biograd_na_moru_ec145f8,Biograd na Moru,ferry_terminal,43.9393683,15.4397343,node,513472666,https://www.openstreetmap.org/node/513472666,Biograd na Moru,,,,,,,,,,,,openstreetmap
birthday_bay_924051f,birthday bay,anchorage,43.6365993,15.6920439,node,8933645736,https://www.openstreetmap.org/node/8933645736,,,,,,,,,,,,,openstreetmap
blue_lagoon_3214378,Blue Lagoon,ferry_terminal,36.0150367,14.3238329,node,4546745137,https://www.openstreetmap.org/node/4546745137,Blue Lagoon,,,,,,,,,,,,openstreetmap
blue_lagoon_3_island_tour_9e5304b,Blue Lagoon - 3 Island Tour -,ferry_terminal,43.5152006,16.2482676,node,474377373,https://www.openstreetmap.org/node/474377373,Blue Lagoon - 3 Island Tour -,,,,,,,,,,,,openstreetmap
blumar_65bfa36,Blumar,marina,37.0693077,15.2917778,node,5088756478,https://www.openstreetmap.org/node/5088756478,Blumar,,marina,,,+39 339 1464134,,,,,,,openstreetmap
bmt_2acfc80,BMT,commercial_port,36.741355,5.0773986,way,297357796,https://www.openstreetmap.org/way/297357796,BMT,,,,,,,,,,,,openstreetmap
boarding_park_9a84340,Boarding park,ferry_terminal,42.812084,10.3226855,way,33293869,https://www.openstreetmap.org/way/33293869,Boarding park,,,,,,,destination,,,,,openstreetmap
boarding_park_moby_31e14be,Boarding park Moby,ferry_terminal,42.810641,10.32135,way,192651932,https://www.openstreetmap.org/way/192651932,Boarding park Moby,,,,,,,destination,,,,,openstreetmap
bobovisca_40578ba,Bobovišća,marina,43.3506603,16.4620207,node,2916294595,https://www.openstreetmap.org/node/2916294595,Bobovišća,,marina,,,,,,,,,,openstreetmap
bocca_di_magra_ar_nav_harbour_fcb79a3,Bocca di Magra Ar-Nav Harbour,marina,44.0624458,9.9708387,node,4685462236,https://www.openstreetmap.org/node/4685462236,Bocca di Magra Ar-Nav Harbour,,,,,,,,,,,,openstreetmap
bocca_di_magra_marina_del_ponte_368c860,Bocca di Magra Marina del Ponte,marina,44.0614791,9.9744282,node,4685462235,https://www.openstreetmap.org/node/4685462235,Bocca di Magra Marina del Ponte,,marina,,,,,,,,,,openstreetmap
bogliasco_small_harbour_1795449,Bogliasco Small Harbour,marina,44.3772436,9.068373,node,4684424053,https://www.openstreetmap.org/node/4684424053,Bogliasco Small Harbour,,marina,,,,,,,,,,openstreetmap
boies_formentor_21b58dd,Boies Formentor,marina,39.9226884,3.1369829,node,5885052925,https://www.openstreetmap.org/node/5885052925,,,marina_no_facilities,,,+34 606 090131,71,,,,,,openstreetmap
bordighera_marina_2dae043,Bordighera Marina,marina,43.7804111,7.6769274,node,4683390661,https://www.openstreetmap.org/node/4683390661,Bordighera Marina,,marina,,,,,,,,,,openstreetmap
borghetto_santo_spirito_harbour_bed15b6,Borghetto Santo Spirito Harbour,marina,44.1156294,8.2492024,node,4683806782,https://www.openstreetmap.org/node/4683806782,Borghetto Santo Spirito Harbour,,marina,,,,,,,,,,openstreetmap
borgo_medioevale_7fced28,Borgo Medioevale,ferry_terminal,45.0488424,7.6854904,way,104931831,https://www.openstreetmap.org/way/104931831,Borgo Medioevale,,,Gruppo Torinese Trasporti,,,,,,,,,openstreetmap
bou_haroun_d7ce7ef,Bou Haroun,marina,36.6258697,2.6560201,node,2940374707,https://www.openstreetmap.org/node/2940374707,Bou Haroun,,,,,,,,,,,,openstreetmap
bozava_368e034,Božava,marina,44.1394059,14.907044,node,2379492142,https://www.openstreetmap.org/node/2379492142,Božava,,marina,,,,,,yes,,,,openstreetmap
bracciano_fe9a9d9,Bracciano,ferry_terminal,42.1086088,12.1854552,node,911788725,https://www.openstreetmap.org/node/911788725,Bracciano,,,,,,,,,,,,openstreetmap
brbinj_1fabafe,Brbinj,marina,44.084621,14.995882,way,240952910,https://www.openstreetmap.org/way/240952910,Brbinj,,,,,,,,,,,,openstreetmap
brestova_9db7200,Brestova,ferry_terminal,45.1444467,14.2237346,node,60693365,https://www.openstreetmap.org/node/60693365,Brestova,,,,https://www.jadrolinija.hr/en/travel/brestova_-_porozina_cres,,,,,,,,openstreetmap
brgulje_f5a4f38,Brgulje,ferry_terminal,44.225334,14.8387469,node,1893793592,https://www.openstreetmap.org/node/1893793592,Brgulje,,,,,,,,,,,,openstreetmap
brijuni_3d85683,Brijuni,ferry_terminal,44.9271111,13.8018846,node,1008939243,https://www.openstreetmap.org/node/1008939243,Brijuni,,,,,,,,,,,,openstreetmap
brucoli_d9baca4,Brucoli,marina,37.2827015,15.1863931,node,2193907676,https://www.openstreetmap.org/node/2193907676,Brucoli,,marina,,,,,,,,,,openstreetmap
brsanj_iz_12e3945,Bršanj (Iž),ferry_terminal,44.0241912,15.1464896,node,544232837,https://www.openstreetmap.org/node/544232837,Bršanj (Iž),,,,,,,,,,,,openstreetmap
brsanj_mali_iz_8fd48a8,Bršanj (Mali Iž),ferry_terminal,44.0243226,15.1468252,node,11196235216,https://www.openstreetmap.org/node/11196235216,Bršanj (Mali Iž),,,,,,,,,,,,openstreetmap
bucht_soline_1_insel_pasman_04b5792,"Bucht Soline 1, Insel Pašman",marina,43.931357,15.3513683,node,975673410,https://www.openstreetmap.org/node/975673410,"Bucht Soline 1, Insel Pašman",,,,,,,,,,,,openstreetmap
bucht_soline_2_insel_pasman_5e5afc4,"Bucht Soline 2, Insel Pašman",marina,43.9256544,15.3596402,node,975673162,https://www.openstreetmap.org/node/975673162,"Bucht Soline 2, Insel Pašman",,,,,,,,,,,,openstreetmap
bucht_sv_nikola_insel_olib_d4d77cc,"Bucht Sv. Nikola, Insel Olib",marina,44.3535695,14.7742092,node,976083445,https://www.openstreetmap.org/node/976083445,"Bucht Sv. Nikola, Insel Olib",,,,,,,,,,,,openstreetmap
bucht_triluke_8cbfbd2,Bucht Triluke,marina,43.8909313,15.4416604,node,1705773941,https://www.openstreetmap.org/node/1705773941,Bucht Triluke,,,,,,,,,,,,openstreetmap
bukasin_7499dba,Bukašin,harbour,44.1095881,14.9403977,node,6840571309,https://www.openstreetmap.org/node/6840571309,Bukašin,,fishing,,,,,,,,,,openstreetmap
bunge_iberica_sa_f2a7167,Bunge Ibérica SA,commercial_port,41.3599396,2.1689026,way,618798111,https://www.openstreetmap.org/way/618798111,Bunge Ibérica SA,,,,,,,,,,,,openstreetmap
bura_line_f796b13,Bura Line,ferry_terminal,43.4995373,16.3402506,node,474376369,https://www.openstreetmap.org/node/474376369,Bura Line,,,,,,,,,,,,openstreetmap
bura_line_6f15334,Bura Line,ferry_terminal,43.5064528,16.4393831,node,1765211836,https://www.openstreetmap.org/node/1765211836,Bura Line,,,Bura Line,https://www.buraline.com/,,,,,,,,openstreetmap
burano_59bbb4c,Burano,ferry_terminal,45.4876117,12.4148459,node,9238328217,https://www.openstreetmap.org/node/9238328217,Burano,,,Laguna Fla,,,,,,,,,openstreetmap
burano_a_a894bc0,Burano (A),ferry_terminal,45.4877014,12.415233,node,7943196373,https://www.openstreetmap.org/node/7943196373,Burano (A),,,,,,,,,,,,openstreetmap
burano_b_aa171ac,Burano (B),ferry_terminal,45.487615,12.4162159,node,4212293004,https://www.openstreetmap.org/node/4212293004,Burano (B),,,,,,,,,,,,openstreetmap
burano_c_6b79104,Burano (C),ferry_terminal,45.4875797,12.4166995,node,3531850940,https://www.openstreetmap.org/node/3531850940,Burano (C),,,,,,,,,,,,openstreetmap
buzzancone_328d3ba,Buzzancone,anchorage,42.7428993,10.4203069,node,10856080353,https://www.openstreetmap.org/node/10856080353,,,,,,,,,,,,,openstreetmap
bugibba_ferry_terminal_eaba17a,Buġibba Ferry Terminal,ferry_terminal,35.9520802,14.4089887,node,13160803413,https://www.openstreetmap.org/node/13160803413,Buġibba Ferry Terminal,,,,,,,,,,,,openstreetmap
bejaia_a8da74c,Béjaïa,ferry_terminal,36.7522766,5.088574,node,5085729756,https://www.openstreetmap.org/node/5085729756,Béjaïa,Bejaia,,النقل البحري الجزائري,https://www.portdebejaia.dz/,,,,,,,,openstreetmap
c_n_villa_de_san_pedro_1f65af4,C.N.Villa de San Pedro,marina,37.8217749,-0.7565461,node,3786169055,https://www.openstreetmap.org/node/3786169055,C.N.Villa de San Pedro,,marina,,,,,,,,,,openstreetmap
ca_ballarin_e97de84,Ca' Ballarin,ferry_terminal,45.4746775,12.519484,node,10064329100,https://www.openstreetmap.org/node/10064329100,Ca' Ballarin,,,Blue Dream,,,,,,,,,openstreetmap
ca_d_oro_d9b8937,Ca' D' Oro,ferry_terminal,45.440545,12.3338929,node,1905904217,https://www.openstreetmap.org/node/1905904217,Ca' D' Oro,,,,,,,,,,,,openstreetmap
ca_di_sopra_07b34f8,Ca' di Sopra,ferry_terminal,43.8603721,11.8394674,node,1551837904,https://www.openstreetmap.org/node/1551837904,Ca' di Sopra,,,,,,,,,,,,openstreetmap
ca_rezzonico_6db8eab,Ca' Rezzonico,ferry_terminal,45.4332642,12.3271509,node,3586368091,https://www.openstreetmap.org/node/3586368091,Ca' Rezzonico,,,,,,,,,,,,openstreetmap
ca_n_picafort_46f169a,Ca'n Picafort,anchorage,39.7682462,3.1598296,node,3985602179,https://www.openstreetmap.org/node/3985602179,Ca'n Picafort,,,,,,,,,,,,openstreetmap
ca_na_ve_4c53b08,Ca.Na.Ve.,marina,45.4338415,12.3108654,node,1784932547,https://www.openstreetmap.org/node/1784932547,Ca.Na.Ve.,,,Ca.Na.Ve.,,,,,,,,,openstreetmap
cabrera_2bb49ba,Cabrera,ferry_terminal,39.1504872,2.9332529,node,3032427269,https://www.openstreetmap.org/node/3032427269,Cabrera,,,,,,,,,,,,openstreetmap
cagliari_15accd8,Cagliari,marina,39.2003117,9.1114589,node,5100376572,https://www.openstreetmap.org/node/5100376572,,,marina,,,,,,,,,,openstreetmap
cagliari_8a95cf2,Cagliari,marina,39.2110922,9.1124853,node,5100376570,https://www.openstreetmap.org/node/5100376570,Cagliari,,marina,,,+39 331 9209101,74,,,,9,55,openstreetmap
cagliari_international_container_terminal_b2c3b34,Cagliari International Container Terminal,commercial_port,39.2157134,9.0750393,relation,14480781,https://www.openstreetmap.org/relation/14480781,Cagliari International Container Terminal,,,,http://www.cict.it/,,,,,,,,openstreetmap
cala_addaia_dfd212e,Cala Addaia,anchorage,40.0046097,4.1999442,node,13391403695,https://www.openstreetmap.org/node/13391403695,Cala Addaia,,,,,,,,,,,,openstreetmap
cala_agulla_2a30544,Cala Agulla,anchorage,39.7240997,3.4557202,node,3985602166,https://www.openstreetmap.org/node/3985602166,Cala Agulla,,,,,,,,,,,,openstreetmap
cala_albahaca_d950c37,Cala Albahaca,anchorage,39.0645877,1.3752439,node,10821967564,https://www.openstreetmap.org/node/10821967564,Cala Albahaca,,,,,,,,,,,,openstreetmap
cala_alcaufar_cc56412,Cala Alcaufar,anchorage,39.8276819,4.2952989,node,13391394749,https://www.openstreetmap.org/node/13391394749,Cala Alcaufar,,,,,,,,,,,,openstreetmap
cala_anguila_e05c8ff,Cala Anguila,anchorage,39.520812,3.3180872,node,13390659549,https://www.openstreetmap.org/node/13390659549,Cala Anguila,,,,,,,,,,,,openstreetmap
cala_banyalbufar_04248b9,Cala Banyalbufar,anchorage,39.6925056,2.5152726,node,3985602163,https://www.openstreetmap.org/node/3985602163,Cala Banyalbufar,,,,,,,,,,,,openstreetmap
cala_barbarossa_4215b28,Cala Barbarossa,anchorage,42.7680259,10.4080775,node,4685987861,https://www.openstreetmap.org/node/4685987861,Cala Barbarossa,,,,,,,,,,,,openstreetmap
cala_barques_ae6af54,Cala Barques,anchorage,39.9222022,3.0566484,node,13389180839,https://www.openstreetmap.org/node/13389180839,Cala Barques,,,,,,,,,,,,openstreetmap
cala_barril_5793049,Cala Barril,anchorage,40.0635199,4.0284329,node,13391483610,https://www.openstreetmap.org/node/13391483610,Cala Barril,,,,,,,,,,,,openstreetmap
cala_beltran_42affb1,Cala Beltran,anchorage,39.3588685,2.831633,node,13390664779,https://www.openstreetmap.org/node/13390664779,Cala Beltran,,,,,,,,,,,,openstreetmap
cala_benirras_d3beeda,Cala Benirràs,anchorage,39.0895652,1.4512023,node,1852794908,https://www.openstreetmap.org/node/1852794908,Cala Benirràs,,,,,,,,,,,,openstreetmap
cala_binissafuller_fa9709e,Cala Binissafúller,anchorage,39.8264748,4.2193977,node,13391394757,https://www.openstreetmap.org/node/13391394757,Cala Binissafúller,,,,,,,,,,,,openstreetmap
cala_bitta_small_harbour_2b64b90,Cala Bitta Small Harbour,marina,41.1259244,9.4694284,node,4691045432,https://www.openstreetmap.org/node/4691045432,Cala Bitta Small Harbour,,,,,,,,,,,,openstreetmap
cala_blanca_edd6564,Cala Blanca,anchorage,39.1020614,1.4836427,node,10600875910,https://www.openstreetmap.org/node/10600875910,Cala Blanca,,,,,,,,,,,,openstreetmap
cala_blanca_7fff33c,Cala Blanca,anchorage,39.5356639,2.40752,node,1939776721,https://www.openstreetmap.org/node/1939776721,Cala Blanca,,,,,,,,,,,,openstreetmap
cala_blanca_64c147b,Cala Blanca,anchorage,39.9664696,3.832704,node,13391454109,https://www.openstreetmap.org/node/13391454109,Cala Blanca,,,,,,,,,,,,openstreetmap
cala_brafi_78d1398,Cala Brafi,anchorage,39.4035025,3.2556259,node,13390634119,https://www.openstreetmap.org/node/13390634119,Cala Brafi,,,,,,,,,,,,openstreetmap
cala_brigantina_71060db,Cala Brigantina,anchorage,40.9274251,12.8579861,node,4689062551,https://www.openstreetmap.org/node/4689062551,Cala Brigantina,,,,,,,,,,,,openstreetmap
cala_boquer_6b7e86d,Cala Bóquer,anchorage,39.9292623,3.0965352,node,5810783147,https://www.openstreetmap.org/node/5810783147,Cala Bóquer,,,,,,,,,,,,openstreetmap
cala_caldes_133b26c,Cala Caldès,anchorage,39.9975038,4.229267,node,13391496676,https://www.openstreetmap.org/node/13391496676,Cala Caldès,,,,,,,,,,,,openstreetmap
cala_camiciotto_b58357d,Cala Camiciotto,marina,41.2148092,9.4272498,way,442212074,https://www.openstreetmap.org/way/442212074,Cala Camiciotto,,marina,,https://www.calacamiciotto.it/,,,,,,,,openstreetmap
cala_carabo_4ea53b3,Cala Carabó,anchorage,40.059028,3.9291336,node,13391435093,https://www.openstreetmap.org/node/13391435093,Cala Carabó,,,,,,,,,,,,openstreetmap
cala_castell_115a424,Cala Castell,anchorage,39.932247,3.0337834,node,13389187144,https://www.openstreetmap.org/node/13389187144,Cala Castell,,,,,,,,,,,,openstreetmap
cala_cavone_0e87606,Cala Cavone,anchorage,40.9301194,12.9704015,node,3613203892,https://www.openstreetmap.org/node/3613203892,Cala Cavone,,,,,,,,,,,,openstreetmap
cala_cecata_8386cbd,Cala Cecata,anchorage,40.9304048,12.9751278,node,3609734031,https://www.openstreetmap.org/node/3609734031,Cala Cecata,,,,,,,,,,,,openstreetmap
cala_codolar_e11a843,Cala Codolar,anchorage,39.8634766,2.8431545,node,13390699678,https://www.openstreetmap.org/node/13390699678,Cala Codolar,,,,,,,,,,,,openstreetmap
cala_cravieu_f8371b6,Cala Cravieu,marina,44.3374737,8.5427103,node,1509243873,https://www.openstreetmap.org/node/1509243873,Cala Cravieu,,,,,,,,,,,,openstreetmap
cala_d_aiguafreda_ce1abe3,Cala d'Aiguafreda,harbour,41.9645213,3.2272444,way,356731940,https://www.openstreetmap.org/way/356731940,Cala d'Aiguafreda,,,,,,,,,,,,openstreetmap
cala_d_algaiarens_860e303,Cala d'Algaiarens,anchorage,40.0495948,3.920398,node,13391435094,https://www.openstreetmap.org/node/13391435094,Cala d'Algaiarens,,,,,,,,,,,,openstreetmap
cala_d_es_grau_07fa585,Cala d'es Grau,anchorage,39.9521448,4.2708611,node,13391496670,https://www.openstreetmap.org/node/13391496670,Cala d'es Grau,,,,,,,,,,,,openstreetmap
cala_d_esportixol_25571e3,Cala d'EsPortixol,anchorage,39.0750524,1.3983077,node,10821886788,https://www.openstreetmap.org/node/10821886788,Cala d'EsPortixol,,,,,,,,,,,,openstreetmap
cala_de_biniancolla_68a4f1c,Cala de Biniancolla,anchorage,39.8114374,4.261999,node,13391394752,https://www.openstreetmap.org/node/13391394752,Cala de Biniancolla,,,,,,,,,,,,openstreetmap
cala_de_binibequer_1bcf5fa,Cala de Binibèquer,anchorage,39.8145251,4.2431769,node,13391394754,https://www.openstreetmap.org/node/13391394754,Cala de Binibèquer,,,,,,,,,,,,openstreetmap
cala_de_binidali_4578a48,Cala de Binidalí,anchorage,39.8321999,4.1994947,node,13391394759,https://www.openstreetmap.org/node/13391394759,Cala de Binidalí,,,,,,,,,,,,openstreetmap
cala_de_biniparratx_21e5a8c,Cala de Biniparratx,anchorage,39.8319716,4.2037803,node,3055252284,https://www.openstreetmap.org/node/3055252284,Cala de Biniparratx,,,,,,,,,,,,openstreetmap
cala_de_la_falconera_8b1cf44,Cala de la Falconera,anchorage,40.0220835,3.8010106,node,13391454102,https://www.openstreetmap.org/node/13391454102,Cala de la Falconera,,,,,,,,,,,,openstreetmap
cala_de_s_estany_d_en_mas_707eb97,Cala de s'Estany d'en Mas,anchorage,39.5160041,3.312804,node,3985601249,https://www.openstreetmap.org/node/3985601249,Cala de s'Estany d'en Mas,,,,,,,,,,,,openstreetmap
cala_de_sa_font_4b9d922,Cala de sa Font,anchorage,39.6819535,3.454717,node,3985602161,https://www.openstreetmap.org/node/3985602161,Cala de sa Font,,,,,,,,,,,,openstreetmap
cala_de_sanitja_7138453,Cala de Sanitja,anchorage,40.0737768,4.0869138,node,13391483605,https://www.openstreetmap.org/node/13391483605,Cala de Sanitja,,,,,,,,,,,,openstreetmap
cala_de_sant_llorenc_32892e5,Cala de Sant Llorenç,anchorage,39.8818843,4.0943187,node,13391350281,https://www.openstreetmap.org/node/13391350281,Cala de Sant Llorenç,,,,,,,,,,,,openstreetmap
cala_de_santandria_d3694fc,Cala de Santandría,anchorage,39.9795556,3.8337982,node,13391454108,https://www.openstreetmap.org/node/13391454108,Cala de Santandría,,,,,,,,,,,,openstreetmap
cala_de_ses_fontanelles_2f9518c,Cala de ses Fontanelles,anchorage,40.0490817,3.9153443,node,13391435095,https://www.openstreetmap.org/node/13391435095,Cala de ses Fontanelles,,,,,,,,,,,,openstreetmap
cala_de_ses_olles_26ed2c6,Cala de ses Olles,anchorage,39.8228822,4.2237284,node,13391394756,https://www.openstreetmap.org/node/13391394756,Cala de ses Olles,,,,,,,,,,,,openstreetmap
cala_de_ses_ortigues_5617a5e,Cala de ses Ortigues,anchorage,39.6314342,2.4195046,node,3982220165,https://www.openstreetmap.org/node/3982220165,Cala de ses Ortigues,,,,,,,,,,,,openstreetmap
cala_de_son_vell_1bfa512,Cala de Son Vell,anchorage,39.9224595,3.8689807,node,13391454115,https://www.openstreetmap.org/node/13391454115,Cala de Son Vell,,,,,,,,,,,,openstreetmap
cala_dei_sardi_fbd62a0,Cala dei Sardi,marina,41.0286549,9.5203835,node,4773684037,https://www.openstreetmap.org/node/4773684037,Cala dei Sardi,,marina,,https://caladeisardi.it/,+3907891980403,,,,,,,openstreetmap
cala_deia_8365b14,Cala Deià,anchorage,39.7624468,2.6405123,node,1939822606,https://www.openstreetmap.org/node/1939822606,Cala Deià,,,,,,,,,,,,openstreetmap
cala_del_core_4a7f9c0,Cala del Core,anchorage,40.9142363,12.9653589,node,3613206289,https://www.openstreetmap.org/node/3613206289,Cala del Core,,,,,,,,,,,,openstreetmap
cala_del_forte_b621008,Cala del Forte,marina,43.7887046,7.5990534,way,265949797,https://www.openstreetmap.org/way/265949797,Cala del Forte,,marina,,,,,,,,,,openstreetmap
cala_del_pilar_2641041,Cala del Pilar,anchorage,40.0517946,3.9787949,node,13391435092,https://www.openstreetmap.org/node/13391435092,Cala del Pilar,,,,,,,,,,,,openstreetmap
cala_del_porto_9e4f3ca,Cala del Porto,anchorage,40.941813,12.8542995,node,4689062550,https://www.openstreetmap.org/node/4689062550,Cala del Porto,,,,,,,,,,,,openstreetmap
cala_dell_acqua_3c549f0,Cala dell'Acqua,anchorage,40.9255261,12.9685829,node,4689053159,https://www.openstreetmap.org/node/4689053159,Cala dell'Acqua,,,,,,,,,,,,openstreetmap
cala_delle_sirene_3673dbf,Cala delle Sirene,marina,41.6353819,15.9348708,way,26569316,https://www.openstreetmap.org/way/26569316,Cala delle Sirene,,marina,,http://www.camping-amrblinsee.de/index.html,+39 0884 581439,,,,,,,openstreetmap
cala_des_canutells_ff2b8fe,Cala des Canutells,anchorage,39.8492198,4.1679265,node,13391306437,https://www.openstreetmap.org/node/13391306437,Cala des Canutells,,,,,,,,,,,,openstreetmap
cala_des_degollador_3c810da,Cala des Degollador,anchorage,39.9935553,3.8300594,node,13391454107,https://www.openstreetmap.org/node/13391454107,Cala des Degollador,,,,,,,,,,,,openstreetmap
cala_des_malgrat_64b4b2b,Cala des Malgrat,anchorage,39.5037841,2.4594355,node,5871720856,https://www.openstreetmap.org/node/5871720856,Cala des Malgrat,,,,,,,,,,,,openstreetmap
cala_des_talaier_160e3bb,Cala des Talaier,anchorage,39.925377,3.9022219,node,13390932127,https://www.openstreetmap.org/node/13390932127,Cala des Talaier,,,,,,,,,,,,openstreetmap
cala_di_mola_b2a8515,Cala di Mola,anchorage,42.7606361,10.3911242,node,4685987860,https://www.openstreetmap.org/node/4685987860,,,,,,,,,,,,,openstreetmap
cala_di_nera_4f26c82,Cala di Nera,anchorage,42.740764,10.4238796,node,10856080354,https://www.openstreetmap.org/node/10856080354,,,,,,,,,,,,,openstreetmap
cala_di_volpe_b303056,Cala di Volpe,anchorage,41.0845451,9.5404143,node,5100428394,https://www.openstreetmap.org/node/5100428394,,,,,,,,,,,,,openstreetmap
cala_dogana_bb99a65,Cala Dogana,harbour,37.9867868,12.3407658,way,422833298,https://www.openstreetmap.org/way/422833298,Cala Dogana,,,,,,,,,,,,openstreetmap
cala_dragunara_d25ffdb,Cala Dragunara,marina,40.5759423,8.1611483,node,3727506012,https://www.openstreetmap.org/node/3727506012,Cala Dragunara,,marina_no_facilities,,,,,,,,,,openstreetmap
cala_en_basset_35b71bc,Cala en Basset,anchorage,39.5971356,2.3538575,node,5948719514,https://www.openstreetmap.org/node/5948719514,Cala en Basset,,,,,,,,,,,,openstreetmap
cala_en_basto_3ef8c89,Cala en Bastó,anchorage,39.9563172,3.8293468,node,13391454111,https://www.openstreetmap.org/node/13391454111,Cala en Bastó,,,,,,,,,,,,openstreetmap
cala_en_blanes_b86bb64,Cala en Blanes,anchorage,39.9977712,3.8124026,node,13391454105,https://www.openstreetmap.org/node/13391454105,Cala en Blanes,,,,,,,,,,,,openstreetmap
cala_en_bosc_a6cdac1,Cala en Bosc,anchorage,39.9251398,3.8368787,node,13391454112,https://www.openstreetmap.org/node/13391454112,Cala en Bosc,,,,,,,,,,,,openstreetmap
cala_en_brut_6eaa2fb,Cala en Brut,anchorage,39.99982,3.8069719,node,13391454104,https://www.openstreetmap.org/node/13391454104,Cala en Brut,,,,,,,,,,,,openstreetmap
cala_en_brut_f9cc486,Cala en Brut,anchorage,40.0043458,4.2120536,node,13391403694,https://www.openstreetmap.org/node/13391403694,Cala en Brut,,,,,,,,,,,,openstreetmap
cala_en_feliu_bc9abfd,Cala en Feliu,anchorage,39.9294468,3.1643812,node,3985602194,https://www.openstreetmap.org/node/3985602194,Cala en Feliu,,,,,,,,,,,,openstreetmap
cala_en_gossalba_909fa53,Cala en Gossalba,anchorage,39.942422,3.1897122,node,3985602196,https://www.openstreetmap.org/node/3985602196,Cala en Gossalba,,,,,,,,,,,,openstreetmap
cala_en_porter_5135bbb,Cala en Porter,anchorage,39.8671747,4.1310893,node,13391306439,https://www.openstreetmap.org/node/13391306439,Cala en Porter,,,,,,,,,,,,openstreetmap
cala_en_tugores_b7f08f3,Cala en Tugores,anchorage,39.2874984,3.0274213,node,5125184921,https://www.openstreetmap.org/node/5125184921,Cala en Tugores,,,,,,,,,,,,openstreetmap
cala_en_turqueta_06f7d35,Cala en Turqueta,anchorage,39.9297629,3.9152381,node,13390932126,https://www.openstreetmap.org/node/13390932126,Cala en Turqueta,,,,,,,,,,,,openstreetmap
cala_es_morts_8b3481b,Cala es Morts,anchorage,40.05157,3.8307569,node,13391435099,https://www.openstreetmap.org/node/13391435099,Cala es Morts,,,,,,,,,,,,openstreetmap
cala_es_pous_c52c487,Cala es Pous,anchorage,40.0523335,3.8265019,node,13391435100,https://www.openstreetmap.org/node/13391435100,Cala es Pous,,,,,,,,,,,,openstreetmap
cala_es_test_a172b7e,Cala es Test,anchorage,39.858776,2.8258896,node,5915275281,https://www.openstreetmap.org/node/5915275281,Cala es Test,,,,,,,,,,,,openstreetmap
cala_escopetar_015efd7,Cala Escopetar,anchorage,40.0122437,3.7937885,node,13391454103,https://www.openstreetmap.org/node/13391454103,Cala Escopetar,,,,,,,,,,,,openstreetmap
cala_escorxada_1caafbc,Cala Escorxada,anchorage,39.9244436,4.0038619,node,13391306440,https://www.openstreetmap.org/node/13391306440,Cala Escorxada,,,,,,,,,,,,openstreetmap
cala_estellencs_2803e85,Cala Estellencs,anchorage,39.6593761,2.4711173,node,3985602158,https://www.openstreetmap.org/node/3985602158,Cala Estellencs,,,,,,,,,,,,openstreetmap
cala_estremer_7112799,Cala Estremer,anchorage,39.9316938,3.0402393,node,13389187143,https://www.openstreetmap.org/node/13389187143,Cala Estremer,,,,,,,,,,,,openstreetmap
cala_falco_70e3af1,Cala Falcó,anchorage,39.5032748,3.3013281,node,7934897681,https://www.openstreetmap.org/node/7934897681,Cala Falcó,,,,,,,,,,,,openstreetmap
cala_ferrera_0573437,Cala Ferrera,anchorage,39.3782863,3.2402641,node,1961646879,https://www.openstreetmap.org/node/1961646879,Cala Ferrera,,,,,,,,,,,,openstreetmap
cala_figuera_77d8e2b,Cala Figuera,anchorage,39.462178,2.5208825,node,1939470746,https://www.openstreetmap.org/node/1939470746,Cala Figuera,,,,,,,,,,,,openstreetmap
cala_figuera_b4ee877,Cala Figuera,anchorage,39.9526178,3.1765947,node,3985602197,https://www.openstreetmap.org/node/3985602197,Cala Figuera,,,,,,,,,,,,openstreetmap
cala_figuera_4b1796c,Cala Figuera,marina,39.3317044,3.1697389,node,1961625010,https://www.openstreetmap.org/node/1961625010,Cala Figuera,,marina,,,+34 971 653220,,,,,,,openstreetmap
cala_fonte_834bcad,Cala Fonte,anchorage,40.9339649,12.9800785,node,3609732755,https://www.openstreetmap.org/node/3609732755,Cala Fonte,,,,,,,,,,,,openstreetmap
cala_fornells_b69f9a6,Cala Fornells,anchorage,39.5311856,2.4410774,node,1939776717,https://www.openstreetmap.org/node/1939776717,Cala Fornells,,,,,,,,,,,,openstreetmap
cala_fustam_53ccc0e,Cala Fustam,anchorage,39.9249378,4.0007471,node,13391306441,https://www.openstreetmap.org/node/13391306441,Cala Fustam,,,,,,,,,,,,openstreetmap
cala_galdana_9b8b2c1,Cala Galdana,anchorage,39.9360969,3.9586321,node,13390932125,https://www.openstreetmap.org/node/13390932125,Cala Galdana,,,,,,,,,,,,openstreetmap
cala_gat_a08abfb,Cala Gat,anchorage,39.7115387,3.4701489,node,3985602165,https://www.openstreetmap.org/node/3985602165,Cala Gat,,,,,,,,,,,,openstreetmap
cala_gonone_b8c1385,Cala Gonone,marina,40.2825522,9.6386671,relation,18859997,https://www.openstreetmap.org/relation/18859997,Cala Gonone,,marina,,,,,,,,,,openstreetmap
cala_gran_de_cala_d_or_d990ced,Cala Gran de Cala d'Or,anchorage,39.3714186,3.2340868,node,1961646811,https://www.openstreetmap.org/node/1961646811,Cala Gran de Cala d'Or,,,,,,,,,,,,openstreetmap
cala_iris_c6c090c,Cala Iris,harbour,35.1504993,-4.3698759,node,8423162969,https://www.openstreetmap.org/node/8423162969,,,fishing,,,,,,,,,,openstreetmap
cala_llamp_2a39c42,Cala Llamp,anchorage,39.5318663,2.3867583,node,5871758524,https://www.openstreetmap.org/node/5871758524,Cala Llamp,,,,,,,,,,,,openstreetmap
cala_llombards_5e692b6,Cala Llombards,anchorage,39.3243523,3.14259,node,1961625065,https://www.openstreetmap.org/node/1961625065,Cala Llombards,,,,,,,,,,,,openstreetmap
cala_llonga_4344713,Cala Llonga,anchorage,39.8879824,4.2939568,node,13391394742,https://www.openstreetmap.org/node/13391394742,Cala Llonga,,,,,,,,,,,,openstreetmap
cala_llonga_da55dc3,Cala Llonga,ferry_terminal,38.9533411,1.5210911,node,801066563,https://www.openstreetmap.org/node/801066563,Cala Llonga,,,,,,,,,,,,openstreetmap
cala_llucalari_ff0a4e1,Cala Llucalari,anchorage,39.8903401,4.08186,node,13391350282,https://www.openstreetmap.org/node/13391350282,Cala Llucalari,,,,,,,,,,,,openstreetmap
cala_lunga_7449e29,Cala Lunga,marina,39.0219632,8.3721222,node,9527851377,https://www.openstreetmap.org/node/9527851377,Cala Lunga,,marina,,,,,,,,,,openstreetmap
cala_macarella_ddeb527,Cala Macarella,anchorage,39.9368449,3.9371211,node,3054488119,https://www.openstreetmap.org/node/3054488119,Cala Macarella,,,,,,,,,,,,openstreetmap
cala_magraner_0c490df,Cala Magraner,anchorage,39.485055,3.2892884,node,1961728968,https://www.openstreetmap.org/node/1961728968,Cala Magraner,,,,,,,,,,,,openstreetmap
cala_mangiavolpe_1650a23,Cala Mangiavolpe,marina,41.2126863,9.4086802,node,3467575012,https://www.openstreetmap.org/node/3467575012,Cala Mangiavolpe,,marina,,,,,,,,,,openstreetmap
cala_marcal_6645c7a,Cala Marçal,anchorage,39.4095132,3.2606272,node,3985601248,https://www.openstreetmap.org/node/3985601248,Cala Marçal,,,,,,,,,,,,openstreetmap
cala_mata_ffb1938,Cala Mata,anchorage,39.7584207,3.3198582,node,3985602175,https://www.openstreetmap.org/node/3985602175,Cala Mata,,,,,,,,,,,,openstreetmap
cala_mendia_cb39cda,Cala Mendia,anchorage,39.5200748,3.3173429,node,3985601251,https://www.openstreetmap.org/node/3985601251,Cala Mendia,,,,,,,,,,,,openstreetmap
cala_mermessen_adac1cb,Cala Mermessèn,anchorage,39.5360093,2.3767247,node,4539424576,https://www.openstreetmap.org/node/4539424576,Cala Mermessèn,,,,,,,,,,,,openstreetmap
cala_mesquida_db1d381,Cala Mesquida,anchorage,39.7475016,3.43592,node,3985602172,https://www.openstreetmap.org/node/3985602172,Cala Mesquida,,,,,,,,,,,,openstreetmap
cala_mesquida_bad664f,Cala Mesquida,anchorage,39.9140313,4.2885562,node,13391394740,https://www.openstreetmap.org/node/13391394740,Cala Mesquida,,,,,,,,,,,,openstreetmap
cala_millor_ab3fc10,Cala Millor,anchorage,39.5955169,3.3873711,node,3985601256,https://www.openstreetmap.org/node/3985601256,Cala Millor,,,,,,,,,,,,openstreetmap
cala_mitjana_d0aca37,Cala Mitjana,anchorage,39.3877417,3.2472105,node,2468861919,https://www.openstreetmap.org/node/2468861919,Cala Mitjana,,,,,,,,,,,,openstreetmap
cala_mitjana_e8648f9,Cala Mitjana,anchorage,39.932372,3.971834,node,13391306443,https://www.openstreetmap.org/node/13391306443,Cala Mitjana,,,,,,,,,,,,openstreetmap
cala_molto_0a66f91,Cala Moltó,anchorage,39.7287113,3.4551394,node,3985602167,https://www.openstreetmap.org/node/3985602167,Cala Moltó,,,,,,,,,,,,openstreetmap
cala_mondrago_b91cafa,Cala Mondragó,anchorage,39.3497217,3.1884531,node,1961625272,https://www.openstreetmap.org/node/1961625272,Cala Mondragó,,,,,,,,,,,,openstreetmap
cala_moreia_b7dfcc6,Cala Moreia,anchorage,39.5669826,3.3768343,node,3985601254,https://www.openstreetmap.org/node/3985601254,Cala Moreia,,,,,,,,,,,,openstreetmap
cala_morell_c8bfc45,Cala Morell,anchorage,40.0552343,3.8833316,node,13391435097,https://www.openstreetmap.org/node/13391435097,Cala Morell,,,,,,,,,,,,openstreetmap
cala_moresca_4b04c5a,Cala Moresca,anchorage,42.9354333,10.4980342,node,860358750,https://www.openstreetmap.org/node/860358750,Cala Moresca,,,,,,,,,,,,openstreetmap
cala_murta_f9df86c,Cala Murta,anchorage,39.9400092,3.181891,node,3985602195,https://www.openstreetmap.org/node/3985602195,Cala Murta,,,,,,,,,,,,openstreetmap
cala_marmols_b8f132b,Cala Màrmols,anchorage,39.2885401,3.0913481,node,1961625057,https://www.openstreetmap.org/node/1961625057,Cala Màrmols,,,,,,,,,,,,openstreetmap
cala_naregno_5aba5ac,Cala Naregno,anchorage,42.75482,10.4054939,node,4685987862,https://www.openstreetmap.org/node/4685987862,Cala Naregno,,,,,,,,,,,,openstreetmap
cala_nido_d_aquila_small_harbour_8d98a34,Cala Nido d'Aquila Small Harbour,marina,41.2143841,9.3809775,node,4691414429,https://www.openstreetmap.org/node/4691414429,Cala Nido d'Aquila Small Harbour,,marina,,,,,,,,,,openstreetmap
cala_niu_llorc_a62ba1e,Cala Niu Llorc,anchorage,39.9194775,4.0193743,node,13391350288,https://www.openstreetmap.org/node/13391350288,Cala Niu Llorc,,,,,,,,,,,,openstreetmap
cala_nova_f11d712,Cala Nova,marina,39.5488894,2.598882,way,102323827,https://www.openstreetmap.org/way/102323827,Cala Nova,,marina,,https://www.portcalanova.com/,+34 971 402512,9,,,,,,openstreetmap
cala_pada_edba51a,Cala Pada,ferry_terminal,38.9930178,1.5619086,node,9797612969,https://www.openstreetmap.org/node/9797612969,Cala Pada,,,,,,,,,,,,openstreetmap
cala_parejals_69cb893,Cala Parejals,anchorage,39.9223032,3.856605,node,13391454113,https://www.openstreetmap.org/node/13391454113,Cala Parejals,,,,,,,,,,,,openstreetmap
cala_petita_bf814d6,Cala Petita,anchorage,39.5473619,3.3564964,node,3985601253,https://www.openstreetmap.org/node/3985601253,Cala Petita,,,,,,,,,,,,openstreetmap
cala_pi_6f0eadc,Cala Pi,anchorage,39.3623313,2.8343502,node,1961465219,https://www.openstreetmap.org/node/1961465219,Cala Pi,,,,,,,,,,,,openstreetmap
cala_pilota_ebdde02,Cala Pilota,anchorage,39.4845066,3.2887028,node,13390634975,https://www.openstreetmap.org/node/13390634975,Cala Pilota,,,,,,,,,,,,openstreetmap
cala_portinatx_a3de1e7,Cala Portinatx,anchorage,39.1110083,1.5143796,node,6855849307,https://www.openstreetmap.org/node/6855849307,Cala Portinatx,,,,,,,,,,,,openstreetmap
cala_pregonda_981ec1d,Cala Pregonda,anchorage,40.0565457,4.0425486,node,13391483609,https://www.openstreetmap.org/node/13391483609,Cala Pregonda,,,,,,,,,,,,openstreetmap
cala_rafalet_b7df2ed,Cala Rafalet,anchorage,39.8409126,4.299566,node,13391394747,https://www.openstreetmap.org/node/13391394747,Cala Rafalet,,,,,,,,,,,,openstreetmap
cala_rambles_1a25b8e,Cala Rambles,anchorage,39.9647207,4.2565781,node,13391496673,https://www.openstreetmap.org/node/13391496673,Cala Rambles,,,,,,,,,,,,openstreetmap
cala_refaubetx_16a413a,Cala Refaubetx,anchorage,39.4686974,2.4901647,node,13390634121,https://www.openstreetmap.org/node/13390634121,Cala Refaubetx,,,,,,,,,,,,openstreetmap
cala_renella_7de3028,Cala Renella,marina,41.2131103,9.4107995,node,3467572320,https://www.openstreetmap.org/node/3467572320,Cala Renella,,marina,,,,,,,,,,openstreetmap
cala_roja_23d7684,Cala Roja,anchorage,39.7704157,3.3792239,node,3985602180,https://www.openstreetmap.org/node/3985602180,Cala Roja,,,,,,,,,,,,openstreetmap
cala_roja_9f0ca9a,Cala Roja,anchorage,40.0622191,4.0762718,node,13391483606,https://www.openstreetmap.org/node/13391483606,Cala Roja,,,,,,,,,,,,openstreetmap
cala_s_escala_00424c0,Cala S'Escala,anchorage,40.0509952,3.910363,node,13391435096,https://www.openstreetmap.org/node/13391435096,Cala S'Escala,,,,,,,,,,,,openstreetmap
cala_sa_nau_1beee5e,Cala sa Nau,anchorage,39.3924755,3.2490371,node,2477684403,https://www.openstreetmap.org/node/2477684403,Cala sa Nau,,,,,,,,,,,,openstreetmap
cala_salada_40cdf4b,Cala Salada,anchorage,39.0095025,1.2960484,node,10839259375,https://www.openstreetmap.org/node/10839259375,,,,,,,,,,,,,openstreetmap
cala_sant_esteve_f6fdc5e,Cala Sant Esteve,anchorage,39.8634609,4.3002626,node,13391394746,https://www.openstreetmap.org/node/13391394746,Cala Sant Esteve,,,,,,,,,,,,openstreetmap
cala_sant_vicenc_04dca3b,Cala Sant Vicenç,anchorage,39.923429,3.0602932,node,5810789663,https://www.openstreetmap.org/node/5810789663,Cala Sant Vicenç,,,,,,,,,,,,openstreetmap
cala_santanyi_4131563,Cala Santanyí,anchorage,39.3285374,3.1472695,node,1961625126,https://www.openstreetmap.org/node/1961625126,Cala Santanyí,,,,,,,,,,,,openstreetmap
cala_sequer_1ee4779,Cala Sequer,anchorage,39.4937211,3.2948071,node,13390634974,https://www.openstreetmap.org/node/13390634974,Cala Sequer,,,,,,,,,,,,openstreetmap
cala_serena_b1bc509,Cala Serena,anchorage,39.3782616,3.2411127,node,13390696944,https://www.openstreetmap.org/node/13390696944,Cala Serena,,,,,,,,,,,,openstreetmap
cala_ses_cambres_91a587d,Cala Ses Cambres,anchorage,39.8097176,2.7034308,node,1940648137,https://www.openstreetmap.org/node/1940648137,Cala Ses Cambres,,,,,,,,,,,,openstreetmap
cala_solana_cc1cd3a,Cala Solana,anchorage,39.8806563,3.1900125,node,3985602187,https://www.openstreetmap.org/node/3985602187,Cala Solana,,,,,,,,,,,,openstreetmap
cala_taulera_b36718c,Cala Taulera,anchorage,39.8781329,4.3085744,node,13391394744,https://www.openstreetmap.org/node/13391394744,Cala Taulera,,,,,,,,,,,,openstreetmap
cala_tirant_0313558,Cala Tirant,anchorage,40.0478035,4.1048505,node,13391483603,https://www.openstreetmap.org/node/13391483603,Cala Tirant,,,,,,,,,,,,openstreetmap
cala_torrent_332c400,Cala Torrent,anchorage,39.8142374,4.2466815,node,13391394753,https://www.openstreetmap.org/node/13391394753,Cala Torrent,,,,,,,,,,,,openstreetmap
cala_torta_d3e6a1f,Cala Torta,anchorage,39.7546175,3.4197757,node,3985602174,https://www.openstreetmap.org/node/3985602174,Cala Torta,,,,,,,,,,,,openstreetmap
cala_torta_3cc7944,Cala Torta,anchorage,40.0699637,4.0808717,node,13391483607,https://www.openstreetmap.org/node/13391483607,Cala Torta,,,,,,,,,,,,openstreetmap
cala_tortuga_3e4ab5b,Cala Tortuga,anchorage,39.9899951,4.2567974,node,13391496674,https://www.openstreetmap.org/node/13391496674,Cala Tortuga,,,,,,,,,,,,openstreetmap
cala_trebaluger_ce91470,Cala Trebalúger,anchorage,39.9294662,3.9887897,node,13391306442,https://www.openstreetmap.org/node/13391306442,Cala Trebalúger,,,,,,,,,,,,openstreetmap
cala_tuent_bc2c4b3,Cala Tuent,ferry_terminal,39.8407894,2.7759492,node,4262557942,https://www.openstreetmap.org/node/4262557942,Cala Tuent,,,,,,,,,,,,openstreetmap
cala_varques_da71fda,Cala Varques,anchorage,39.4990595,3.2977771,node,2487364780,https://www.openstreetmap.org/node/2487364780,Cala Varques,,,,,,,,,,,,openstreetmap
cala_verde_c749c1e,Cala Verde,marina,38.9366743,8.9397405,node,4695663146,https://www.openstreetmap.org/node/4695663146,Cala Verde,Cala Verde Small Marina,,,,,,,,,,,openstreetmap
cala_virgili_d308081,Cala Virgili,anchorage,39.4827652,3.2885205,node,1961728868,https://www.openstreetmap.org/node/1961728868,Cala Virgili,,,,,,,,,,,,openstreetmap
cala_xaracca_51c001c,Cala Xaracca,anchorage,39.1011022,1.5013262,node,1853008762,https://www.openstreetmap.org/node/1853008762,Cala Xaracca,,,,,,,,,,,,openstreetmap
calagrande_5d1e292,Calagrande,anchorage,42.7483602,10.40878,node,4685987863,https://www.openstreetmap.org/node/4685987863,Calagrande,,,,,,,,,,,,openstreetmap
calanova_1fe57b8,Calanova,anchorage,42.744667,10.4131603,node,10916477354,https://www.openstreetmap.org/node/10916477354,Calanova,,,,,,,,,,,,openstreetmap
calanque_de_niolon_0dd4093,Calanque de Niolon,harbour,43.3393412,5.2583626,node,3952045137,https://www.openstreetmap.org/node/3952045137,Calanque de Niolon,,,,,,,,,,,,openstreetmap
calasetta_9f46b96,Calasetta,ferry_terminal,39.1122648,8.3731876,node,600514587,https://www.openstreetmap.org/node/600514587,Calasetta,,,Delcomar,,,,,,,,,openstreetmap
calasetta_porto_turistico_780815b,Calasetta Porto Turistico,marina,39.1139329,8.3703206,node,4695822512,https://www.openstreetmap.org/node/4695822512,Calasetta Porto Turistico,Calasetta Marina,marina,,,,,,,,,,openstreetmap
calata_carrara_dce5034,Calata Carrara,ferry_terminal,43.5554649,10.3021975,node,5711200995,https://www.openstreetmap.org/node/5711200995,Calata Carrara,,,,,,,,,,,,openstreetmap
cale_de_boucau_fa47b8a,Cale de Boucau,ferry_terminal,43.5226628,-1.4913118,node,9830979672,https://www.openstreetmap.org/node/9830979672,Cale de Boucau,,,,,,,,,,,,openstreetmap
cales_coves_9ef4298,Cales Coves,anchorage,39.862535,4.1446325,node,13391306438,https://www.openstreetmap.org/node/13391306438,Cales Coves,,,,,,,,,,,,openstreetmap
caleta_des_cap_pinar_5b46e2d,Caleta des Cap Pinar,anchorage,39.8877704,3.1876421,node,13389459274,https://www.openstreetmap.org/node/13389459274,Caleta des Cap Pinar,,,,,,,,,,,,openstreetmap
calo_blanc_d02ad44,Caló Blanc,anchorage,39.8280647,4.2118868,node,13391394758,https://www.openstreetmap.org/node/13391394758,Caló Blanc,,,,,,,,,,,,openstreetmap
calo_d_en_fust_94db1c3,Caló d'en Fust,anchorage,39.8215646,4.2283191,node,13391394755,https://www.openstreetmap.org/node/13391394755,Caló d'en Fust,,,,,,,,,,,,openstreetmap
calo_de_s_estaca_6cd5be8,Caló de s'Estaca,marina,39.7355046,2.6042911,way,275585863,https://www.openstreetmap.org/way/275585863,Caló de s'Estaca,,marina,,,,,,,,,,openstreetmap
calo_de_ses_dones_d4e94c5,Caló de ses Dones,anchorage,39.3694056,3.2316481,node,13390634120,https://www.openstreetmap.org/node/13390634120,Caló de ses Dones,,,,,,,,,,,,openstreetmap
calo_de_ses_mandres_44488d5,Caló de ses Mandres,anchorage,39.9944721,4.2602132,node,13391496675,https://www.openstreetmap.org/node/13391496675,Caló de ses Mandres,,,,,,,,,,,,openstreetmap
calo_del_moro_60b9ce6,Caló del Moro,anchorage,39.9105937,3.1112818,node,13389180838,https://www.openstreetmap.org/node/13389180838,Caló del Moro,,,,,,,,,,,,openstreetmap
calo_des_borgit_54431aa,Caló des Borgit,anchorage,39.3515524,3.1919132,node,1961625275,https://www.openstreetmap.org/node/1961625275,Caló des Borgit,,,,,,,,,,,,openstreetmap
calo_des_corral_72fb734,Caló des Corral,anchorage,39.3752352,3.2386368,node,1961646829,https://www.openstreetmap.org/node/1961646829,Caló des Corral,,,,,,,,,,,,openstreetmap
calo_des_moro_61d9bbf,Caló des Moro,anchorage,39.3142465,3.1238332,node,1961625062,https://www.openstreetmap.org/node/1961625062,Caló des Moro,,,,,,,,,,,,openstreetmap
calo_des_pellicer_6f6eabd,Caló des Pellicer,anchorage,39.5143231,2.4720126,node,1939763833,https://www.openstreetmap.org/node/1939763833,Caló des Pellicer,,,,,,,,,,,,openstreetmap
calo_roig_1ba715e,Caló Roig,anchorage,39.8263349,4.2961183,node,13391394750,https://www.openstreetmap.org/node/13391394750,Caló Roig,,,,,,,,,,,,openstreetmap
camogli_harbour_6b359f2,Camogli Harbour,marina,44.3515034,9.1508514,node,4684424055,https://www.openstreetmap.org/node/4684424055,Camogli Harbour,,marina,,,,,,,,,,openstreetmap
camp_de_mar_8859908,Camp de Mar,anchorage,39.5373181,2.4161095,node,1939776723,https://www.openstreetmap.org/node/1939776723,Camp de Mar,,,,,,,,,,,,openstreetmap
camp_slatina_475de2d,Camp Slatina,marina,44.8161333,14.3411626,node,1744047034,https://www.openstreetmap.org/node/1744047034,Camp Slatina,,,,,,,,,,,,openstreetmap
camping_oasi_ba1d6de,Camping OASI,marina,45.1813601,12.3073489,node,4338086574,https://www.openstreetmap.org/node/4338086574,Camping OASI,,,,,,,,,,,,openstreetmap
canale_torre_paola_dae7b9b,Canale Torre Paola,marina,41.2529856,13.0405363,node,685970233,https://www.openstreetmap.org/node/685970233,Canale Torre Paola,,,,,,,,,,,,openstreetmap
canals_d_empuriabrava_5eb8a9a,Canals d'Empuriabrava,marina,42.2510265,3.1204155,relation,1991328,https://www.openstreetmap.org/relation/1991328,Canals d'Empuriabrava,,marina,,,,,,,,,,openstreetmap
cannigione_7276400,Cannigione,marina,41.1070182,9.4443553,node,454221033,https://www.openstreetmap.org/node/454221033,Cannigione,,marina,Consorzio Marina Cannigione,,+39 346 806 5848,,,,,,,openstreetmap
canoe_kayak_tarn_dea1585,Canoë Kayak Tarn,marina,43.9415184,2.4826425,node,2905385346,https://www.openstreetmap.org/node/2905385346,Canoë Kayak Tarn,,marina,,http://canoekayaktarn.com/,+33 5 63 55 25 44,,,,,,,openstreetmap
cantiere_di_manutenzione_navale_actv_del_tronchetto_f9e97ea,Cantiere di Manutenzione Navale Actv del Tronchetto,commercial_port,45.4395387,12.3032125,way,1434694929,https://www.openstreetmap.org/way/1434694929,Cantiere di Manutenzione Navale Actv del Tronchetto,,,,,,,,,,,,openstreetmap
cantieri_di_ostia_small_harbour_baf447f,Cantieri di Ostia Small Harbour,marina,41.7419216,12.2419819,node,4687820677,https://www.openstreetmap.org/node/4687820677,Cantieri di Ostia Small Harbour,,marina,,,,,,,,,,openstreetmap
canyamel_b88f285,Canyamel,anchorage,39.6538377,3.4455627,node,3985602157,https://www.openstreetmap.org/node/3985602157,Canyamel,,,,,,,,,,,,openstreetmap
cap_negre_0e53654,Cap Negre,anchorage,39.899059,4.3021646,node,13391394741,https://www.openstreetmap.org/node/13391394741,Cap Negre,,,,,,,,,,,,openstreetmap
capannone_bec56a2,Capannone,ferry_terminal,45.4546534,12.3885859,node,2408434316,https://www.openstreetmap.org/node/2408434316,Capannone,,,,,,,,,,,,openstreetmap
capitainerie_eb9c674,Capitainerie,marina,43.1701305,0.8877146,node,2313637532,https://www.openstreetmap.org/node/2313637532,Capitainerie,,,,,,,,,,,,openstreetmap
capitainerie_9329eb2,Capitainerie,marina,43.4468182,3.6610294,node,7862426488,https://www.openstreetmap.org/node/7862426488,Capitainerie,,marina,,,,,,,,,,openstreetmap
capitainerie_du_port_de_hyeres_port_saint_pierre_4d06178,Capitainerie du port de Hyères - Port Saint Pierre,ferry_terminal,43.0801268,6.1580273,node,1031247820,https://www.openstreetmap.org/node/1031247820,Capitainerie du port de Hyères - Port Saint Pierre,,,TLVTVM,https://www.portshyeres.fr/fr/,+33 4 94 12 54 40,,,,,,,openstreetmap
capitaneria_di_porto_d4e0dc9,Capitaneria di Porto,marina,41.2054035,16.5931777,node,2481694542,https://www.openstreetmap.org/node/2481694542,Capitaneria di Porto,,,,,,,,,,,,openstreetmap
capitaneria_di_porto_military_headquarter_eb5160e,Capitaneria Di Porto Military headquarter,marina,43.8162385,7.7803405,node,1721745441,https://www.openstreetmap.org/node/1721745441,Capitaneria Di Porto Military headquarter,,marina,,,,,,,,,,openstreetmap
capo_pino_small_harbour_c286dc8,Capo Pino Small Harbour,marina,43.7978485,7.7417153,node,4683461483,https://www.openstreetmap.org/node/4683461483,Capo Pino Small Harbour,,marina,,,,,,,,,,openstreetmap
capoliveri_golfo_di_mola_93ce93b,Capoliveri - Golfo di Mola,marina,42.7579988,10.392631,way,522877525,https://www.openstreetmap.org/way/522877525,Capoliveri - Golfo di Mola,,marina,,http://www.golfomola.it/unita_capoliveri.php,,,,,,,,openstreetmap
caposele_harbour_07dea2d,Caposele Harbour,marina,41.2509349,13.598017,node,4688929626,https://www.openstreetmap.org/node/4688929626,Caposele Harbour,,marina,,,,,,,,,,openstreetmap
capri_marina_grande_9df5535,Capri Marina Grande,marina,40.5565206,14.2448279,node,4689538494,https://www.openstreetmap.org/node/4689538494,Capri Marina Grande,,marina,,,,,,,,,,openstreetmap
cargill_slu_804852d,Cargill SLU,commercial_port,41.3467937,2.1584881,way,618798107,https://www.openstreetmap.org/way/618798107,Cargill SLU,,,,,,,,,,,,openstreetmap
carloforte_b16de38,Carloforte,ferry_terminal,39.1444532,8.3078274,node,600514577,https://www.openstreetmap.org/node/600514577,Carloforte,,,Delcomar,,,,,,,,,openstreetmap
carloforte_marina_sifredi_b422b29,Carloforte Marina Sifredi,marina,39.1473275,8.3092872,node,4695868482,https://www.openstreetmap.org/node/4695868482,Carloforte Marina Sifredi,,marina,,,,,,,,,,openstreetmap
carloforte_marinatour_marina_b2ddaf0,Carloforte Marinatour Marina,marina,39.1463073,8.3090376,node,4695868483,https://www.openstreetmap.org/node/4695868483,Carloforte Marinatour Marina,,marina,,,,,,,,,,openstreetmap
carnon_est_c013c06,Carnon Est,ferry_terminal,43.5425803,3.9750013,node,11057528267,https://www.openstreetmap.org/node/11057528267,Carnon Est,,,,,,,,,,,,openstreetmap
carnon_ouest_c85e253,Carnon Ouest,ferry_terminal,43.5424252,3.974508,node,11057528266,https://www.openstreetmap.org/node/11057528266,Carnon Ouest,,,,,,,,,,,,openstreetmap
caronte_tourists_4424025,Caronte & Tourists,ferry_terminal,38.1312873,15.523234,node,2010288033,https://www.openstreetmap.org/node/2010288033,Caronte & Tourists,,,,,,,,,,,,openstreetmap
casamicciola_marina_019ebb9,Casamicciola Marina,marina,40.7490949,13.9089425,node,4689458550,https://www.openstreetmap.org/node/4689458550,Casamicciola Marina,,marina,,,,,,,,,,openstreetmap
castelsardo_marina_66905d7,Castelsardo Marina,marina,40.9126468,8.7003669,node,4690827779,https://www.openstreetmap.org/node/4690827779,Castelsardo Marina,,marina,,,,,,,,,,openstreetmap
castiglione_del_lago_14d46d0,Castiglione del Lago,ferry_terminal,43.1233765,12.0570977,node,309960572,https://www.openstreetmap.org/node/309960572,Castiglione del Lago,,,,,,,,,,,,openstreetmap
catamaran_mundo_marino_f780aa3,Catamaran Mundo Marino,ferry_terminal,38.9948457,-0.1584792,node,9598445399,https://www.openstreetmap.org/node/9598445399,Catamaran Mundo Marino,,,Mundo Marino,https://www.mundomarino.es/,+34966423066,,,,,,,openstreetmap
catamaran_mundo_marino_2448df5,Catamarán Mundo Marino,ferry_terminal,36.7178495,-4.4133082,node,4478747922,https://www.openstreetmap.org/node/4478747922,Catamarán Mundo Marino,,,Mundo Marino,https://mundomarino.es/,+34 966423066,,,,,,,openstreetmap
catanzaro_lido_c78a1cf,Catanzaro Lido,marina,38.8247811,16.6322863,node,1708822135,https://www.openstreetmap.org/node/1708822135,Catanzaro Lido,,marina,,,,,,,,,,openstreetmap
cavo_7ad84ca,Cavo,ferry_terminal,42.8602151,10.4239658,node,1279180498,https://www.openstreetmap.org/node/1279180498,,,ferry,,,,,,,,,,openstreetmap
ca_roman_86b8428,Ca’ Roman,ferry_terminal,45.2436131,12.2939513,node,2328587950,https://www.openstreetmap.org/node/2328587950,Ca’ Roman,,,,,,,,,,,,openstreetmap
celestia_0a95734,Celestia,ferry_terminal,45.4390893,12.3496733,node,1996193107,https://www.openstreetmap.org/node/1996193107,Celestia,,,,,,,,,,,,openstreetmap
centre_nautique_036a50a,Centre Nautique,marina,44.7354482,3.8344284,node,1314261248,https://www.openstreetmap.org/node/1314261248,Centre Nautique,,,,,,,,,,,,openstreetmap
centro_nautico_emmecar_5eb793b,Centro Nautico Emmecar,marina,45.2315276,12.1712326,way,842004085,https://www.openstreetmap.org/way/842004085,Centro Nautico Emmecar,,marina,,,,,,,,,,openstreetmap
centro_velico_punta_marina_287cae9,Centro Velico Punta Marina,marina,44.4351089,12.3000406,node,601010153,https://www.openstreetmap.org/node/601010153,Centro Velico Punta Marina,,marina,,,,,,,,,,openstreetmap
certosa_117d7d2,Certosa,ferry_terminal,45.4304353,12.3674687,node,1996193119,https://www.openstreetmap.org/node/1996193119,Certosa,,,,,,,,,,,,openstreetmap
cetara_harbour_dd9bf65,Cetara Harbour,marina,40.6449253,14.7018649,node,3772896148,https://www.openstreetmap.org/node/3772896148,Cetara Harbour,,,,,,,,,,,,openstreetmap
chantier_hurmic_f953c3b,Chantier Hurmic,marina,44.7036917,-0.4009288,node,2398251637,https://www.openstreetmap.org/node/2398251637,Chantier Hurmic,,,,,,,,,,,,openstreetmap
chantier_tramasset_d19bfd8,Chantier Tramasset,marina,44.707592,-0.4051828,node,2398240288,https://www.openstreetmap.org/node/2398240288,Chantier Tramasset,,,,,,,,,,,,openstreetmap
chantiers_navals_de_la_ciotat_b32a61e,Chantiers navals de la Ciotat,commercial_port,43.1695469,5.6085039,way,662864255,https://www.openstreetmap.org/way/662864255,Chantiers navals de la Ciotat,,,,,,,,,,,,openstreetmap
chiaia_di_luna_67d75aa,Chiaia di Luna,anchorage,40.894137,12.9515318,node,13970292457,https://www.openstreetmap.org/node/13970292457,Chiaia di Luna,,,,,,,,,,,,openstreetmap
chiaiolella_marina_3122eec,Chiaiolella Marina,marina,40.7482968,14.0054058,node,534251785,https://www.openstreetmap.org/node/534251785,Chiaiolella Marina,,,,,,,,,,,,openstreetmap
chiavari_marina_1eb54cb,Chiavari Marina,marina,44.3133842,9.3226639,node,4684470994,https://www.openstreetmap.org/node/4684470994,Chiavari Marina,,marina,,,,,,,,,,openstreetmap
chiesa_f22f596,Chiesa,ferry_terminal,45.4594356,12.4100689,node,2408434312,https://www.openstreetmap.org/node/2408434312,Chiesa,,,,,,,,,,,,openstreetmap
chioggia_684c22b,Chioggia,ferry_terminal,45.2236937,12.2806901,node,3586755915,https://www.openstreetmap.org/node/3586755915,Chioggia,,,ACTV,,,,,,,,,openstreetmap
chateau_d_if_0e8ea65,Château d'If,ferry_terminal,43.280459,5.326549,node,826827721,https://www.openstreetmap.org/node/826827721,Château d'If,,,,,,,,,,,,openstreetmap
chateau_d_if_parc_national_des_calanques_4553b32,Château d'If - Parc National des Calanques,ferry_terminal,43.2957609,5.3733228,node,1727563360,https://www.openstreetmap.org/node/1727563360,Château d'If - Parc National des Calanques,,,Icard Maritime,,,,,,,,,openstreetmap
ciboure_larraldenia_3fd283d,Ciboure - Larraldenia,marina,43.3854683,-1.6667734,way,478950990,https://www.openstreetmap.org/way/478950990,Ciboure - Larraldenia,,marina,Hendaye,,,,,yes,20,,,openstreetmap
cimitero_b712af2,Cimitero,ferry_terminal,45.4486861,12.345963,node,1996193117,https://www.openstreetmap.org/node/1996193117,Cimitero,,,,,,,,,,,,openstreetmap
cinquale_small_harbour_08e803d,Cinquale Small Harbour,marina,43.9781525,10.1413925,node,4687054412,https://www.openstreetmap.org/node/4687054412,Cinquale Small Harbour,,marina,,,,,,,,,,openstreetmap
circolo_canoa_814921f,Circolo Canoa,marina,37.5309643,15.112521,node,4763129795,https://www.openstreetmap.org/node/4763129795,Circolo Canoa,,marina,,,,,,,,,,openstreetmap
circolo_della_vela_lakkios_7edb530,Circolo della vela Lakkios,marina,37.0664848,15.2913889,node,5103270391,https://www.openstreetmap.org/node/5103270391,Circolo della vela Lakkios,,marina,,,,,,,,,,openstreetmap
circolo_nautico_buongiardino_93ae10f,Circolo nautico Buongiardino,marina,44.1826624,9.5829055,node,5645760465,https://www.openstreetmap.org/node/5645760465,Circolo nautico Buongiardino,,,,,,,,,,,,openstreetmap
circolo_nautico_cala_violina_0f6181e,Circolo Nautico Cala Violina,marina,42.9179845,10.759452,relation,11327198,https://www.openstreetmap.org/relation/11327198,Circolo Nautico Cala Violina,,marina,,http://www.circolonauticocalaviolina.it,+39 0566 42233,,,,,,,openstreetmap
circolo_nautico_di_quercianella_f9bd38b,Circolo nautico di Quercianella,marina,43.4588634,10.3627294,node,3202354563,https://www.openstreetmap.org/node/3202354563,Circolo nautico di Quercianella,,marina,Circolo nautico di Quercianella,http://www.cnquercianella.it/,,,,,,,,openstreetmap
circolo_nautico_foce_cecina_a6334fb,Circolo Nautico Foce Cecina,marina,43.3041024,10.4904512,node,1805397909,https://www.openstreetmap.org/node/1805397909,Circolo Nautico Foce Cecina,,marina,,,,,,,,,,openstreetmap
circolo_nautico_juvenilia_8c27462,Circolo nautico Juvenilia,marina,37.0671795,15.2883603,way,683460931,https://www.openstreetmap.org/way/683460931,Circolo nautico Juvenilia,,marina,,,,,,,,,,openstreetmap
circolo_nautico_la_caletta_2b17def,Circolo Nautico La Caletta,marina,40.6125777,9.7528412,relation,12754661,https://www.openstreetmap.org/relation/12754661,Circolo Nautico La Caletta,,marina,Circolo Nautico la Caletta Associazione Sportiva Dilettantistica,https://www.circolonauticolacaletta.it/sito/la-marina,,,,yes,192,,,openstreetmap
circolo_nautico_mandraccio_d212dcd,Circolo Nautico Mandraccio,marina,44.4086431,8.9267455,way,251366294,https://www.openstreetmap.org/way/251366294,Circolo Nautico Mandraccio,,marina,,,,,,,,,,openstreetmap
circolo_nautico_marina_romea_b407b30,Circolo Nautico Marina Romea,marina,44.5262939,12.2772294,node,1622710694,https://www.openstreetmap.org/node/1622710694,Circolo Nautico Marina Romea,,marina,,https://www.cnmr.it/,,,,,,,,openstreetmap
circolo_nautico_marinella_d7ca673,Circolo Nautico Marinella,marina,41.0064974,9.5755962,node,4695304946,https://www.openstreetmap.org/node/4695304946,Circolo Nautico Marinella,Marinella Yacht Club Small Marina,,,,,,,,,,,openstreetmap
circolo_nautico_nazario_sauro_01c2208,Circolo Nautico Nazario Sauro,marina,43.5386613,10.3005175,way,1241460093,https://www.openstreetmap.org/way/1241460093,Circolo Nautico Nazario Sauro,,marina,,,,,,,,,,openstreetmap
circolo_nautico_olbia_3e2f68e,Circolo Nautico Olbia,marina,40.9227636,9.5081141,node,4695332298,https://www.openstreetmap.org/node/4695332298,Circolo Nautico Olbia,Olbia Yacht Club Small Marina,marina,,,,,,,,,,openstreetmap
circolo_nautico_san_marco_2754d6a,Circolo Nautico San Marco,marina,41.7516621,12.2716188,way,731529977,https://www.openstreetmap.org/way/731529977,Circolo Nautico San Marco,,,,,,,,,,,,openstreetmap
circolo_pesca_sportiva_6a3a1ca,Circolo Pesca Sportiva,marina,43.4033306,10.4165397,node,1375840064,https://www.openstreetmap.org/node/1375840064,Circolo Pesca Sportiva,,,,,+39 0586 753564,,,,,,,openstreetmap
circolo_vela_marciana_marina_f792635,Circolo Vela Marciana Marina,marina,42.8081099,10.1959181,way,522870949,https://www.openstreetmap.org/way/522870949,Circolo Vela Marciana Marina,,marina,Circolo Vela Marciana Marina,https://www.cvmm.it/,,,,yes,,,,openstreetmap
circolo_velico_kaucana_8250e07,Circolo Velico Kaucana,marina,36.788017,14.5143376,way,1086824147,https://www.openstreetmap.org/way/1086824147,Circolo Velico Kaucana,,marina,,,,,,,,,,openstreetmap
circolo_velico_ortigia_07246ef,Circolo velico Ortigia,marina,37.0669385,15.2913366,node,10004483986,https://www.openstreetmap.org/node/10004483986,Circolo velico Ortigia,,marina,,,,,,,,,,openstreetmap
circolo_velico_ravennate_ec7ce1b,Circolo Velico Ravennate,marina,44.49176,12.2884896,way,319889715,https://www.openstreetmap.org/way/319889715,Circolo Velico Ravennate,,marina,,,,,,,,,,openstreetmap
circolo_velico_ribellino_24ce5c5,Circolo velico Ribellino,marina,37.066339,15.2893475,way,683460932,https://www.openstreetmap.org/way/683460932,Circolo velico Ribellino,,marina,,,,,,,,,,openstreetmap
cite_du_vin_8084bd3,Cité du Vin,ferry_terminal,44.8617807,-0.5492202,node,12850925549,https://www.openstreetmap.org/node/12850925549,Cité du Vin,,,,,,,,,,,,openstreetmap
ciudad_blanca_80ba1b2,Ciudad Blanca,ferry_terminal,39.8301844,3.1207529,node,7874815179,https://www.openstreetmap.org/node/7874815179,Ciudad Blanca,,,,,,,,,,,,openstreetmap
ciutadella_afbdb03,Ciutadella,ferry_terminal,39.9884294,3.8285693,node,1417396651,https://www.openstreetmap.org/node/1417396651,Ciutadella,,,,,,,,,,,,openstreetmap
civitavecchia_6248029,Civitavecchia,ferry_terminal,42.0990729,11.782536,node,456381084,https://www.openstreetmap.org/node/456381084,Civitavecchia,,,,,,,,,,,,openstreetmap
civitavecchia_darsena_romana_09a20ac,Civitavecchia Darsena Romana,marina,42.0953913,11.7879207,node,456405010,https://www.openstreetmap.org/node/456405010,Civitavecchia Darsena Romana,,,,,,,,,,,,openstreetmap
civitavecchia_fruit_forest_terminal_045249c,Civitavecchia Fruit & Forest Terminal,commercial_port,42.1027098,11.7755679,way,553243140,https://www.openstreetmap.org/way/553243140,Civitavecchia Fruit & Forest Terminal,,,,https://cfft.it,,,,,,,,openstreetmap
cla_balbiano_7e2ebd9,Cla Balbiano,marina,41.2101684,9.4027295,node,5217627934,https://www.openstreetmap.org/node/5217627934,Cla Balbiano,,marina,,,,,,,,,,openstreetmap
clh_9cff8ac,CLH,commercial_port,41.3551491,2.1625207,way,278024072,https://www.openstreetmap.org/way/278024072,CLH,,,,,,,,,,,,openstreetmap
clot_dels_franquets_nord_fb2474d,Clot dels Franquets Nord,marina,42.2658977,3.1535306,way,47512580,https://www.openstreetmap.org/way/47512580,Clot dels Franquets Nord,,marina,,,,,,,,,,openstreetmap
club_capri_mequinensa_2cdb8e3,Club Capri Mequinensa,marina,41.3702343,0.3022158,way,907815607,https://www.openstreetmap.org/way/907815607,Club Capri Mequinensa,,marina,,,,,,,,,,openstreetmap
club_de_mar_d950a70,Club de Mar,marina,39.5552108,2.6258424,node,2462097817,https://www.openstreetmap.org/node/2462097817,Club de Mar,,marina,,https://www.clubdemar-mallorca.com/,+34 971 40 36 11,,,,,,,openstreetmap
club_de_pescadores_deportivos_playa_caseria_de_ossio_e49c500,CLUB DE PESCADORES DEPORTIVOS PLAYA CASERIA DE OSSIO,marina,36.4850937,-6.1982863,way,1204966966,https://www.openstreetmap.org/way/1204966966,CLUB DE PESCADORES DEPORTIVOS PLAYA CASERIA DE OSSIO,,marina,,,,,,,,,,openstreetmap
club_de_vela_blanes_0ff01f8,Club de Vela Blanes,marina,41.674522,2.7970286,node,516404989,https://www.openstreetmap.org/node/516404989,Club de Vela Blanes,,,,,,,,,,,,openstreetmap
club_de_vela_del_port_d_andratx_48c3831,club de vela del Port d'Andratx,marina,39.5468355,2.3852995,way,577166501,https://www.openstreetmap.org/way/577166501,club de vela del Port d'Andratx,,marina,,https://www.cvpa.es/,+34 971 671721; +34 971 672337; +34 971 674216,9,,,,,,openstreetmap
club_marina_palm_6bca9d3,Club Marina Palm,marina,36.7920169,3.2355847,node,3889499991,https://www.openstreetmap.org/node/3889499991,Club Marina Palm,,,,,,,,,,,,openstreetmap
club_maritim_cubelles_d4bd74d,Club Marítim Cubelles,marina,41.2024779,1.6825375,way,784180194,https://www.openstreetmap.org/way/784180194,Club Marítim Cubelles,,,,,,,,,,,,openstreetmap
club_maritim_molinar_de_llevant_8f2f167,Club Marítim Molinar de Llevant,marina,39.5581581,2.6751112,way,273522551,https://www.openstreetmap.org/way/273522551,Club Marítim Molinar de Llevant,,marina,,,,,,,,,,openstreetmap
club_motonautico_mantovano_2cf0f84,Club Motonautico Mantovano,marina,45.1455639,10.8112792,way,888173799,https://www.openstreetmap.org/way/888173799,Club Motonautico Mantovano,,marina,,,,,,,,,,openstreetmap
club_nautic_sant_pere_pescador_046dabf,Club Nautic Sant Pere Pescador,marina,42.1850963,3.0846849,way,1476402564,https://www.openstreetmap.org/way/1476402564,Club Nautic Sant Pere Pescador,,marina,,https://clubnauticsantpere.com/contacte/,+34 972 52 07 17,,,,,,,openstreetmap
club_nautico_320f0ae,Club Nautico,marina,38.0172073,13.6159029,way,285614072,https://www.openstreetmap.org/way/285614072,Club Nautico,,,,,,,,,,,,openstreetmap
club_nautico_alghero_0c6594e,Club Nautico Alghero,marina,40.5630914,8.3120886,node,4696148596,https://www.openstreetmap.org/node/4696148596,Club Nautico Alghero,,marina,,,,,,,,,,openstreetmap
club_nautico_augusta_f0459b8,Club Nautico Augusta,marina,37.2411326,15.2349128,way,516864397,https://www.openstreetmap.org/way/516864397,Club Nautico Augusta,,,,,,,,,,,,openstreetmap
club_nautico_marina_di_brondolo_b71daa2,Club Nautico Marina di Brondolo,marina,45.1826229,12.269319,node,2428062332,https://www.openstreetmap.org/node/2428062332,Club Nautico Marina di Brondolo,,marina,,https://www.marinadibrondolo.it/,+39 041 490950,,,,,,,openstreetmap
club_nautico_06eac95,Club Naútico,marina,39.9700418,0.0148907,way,28450013,https://www.openstreetmap.org/way/28450013,Club Naútico,,marina,,,,,,,,,,openstreetmap
club_nautico_de_comillas_35a9f46,Club Naútico de Comillas,marina,43.3911599,-4.2896844,node,4578323927,https://www.openstreetmap.org/node/4578323927,Club Naútico de Comillas,,,,,,,,,,,,openstreetmap
club_nautico_de_el_rasillo_efd7c03,Club Naútico de El Rasillo,marina,42.1849578,-2.6867385,node,6679972535,https://www.openstreetmap.org/node/6679972535,Club Naútico de El Rasillo,,,Gobierno de La Rioja,,,,,yes,,,,openstreetmap
club_nautico_ibiza_0c63c4f,Club Naútico Ibiza,marina,38.9136669,1.43629,way,455501827,https://www.openstreetmap.org/way/455501827,Club Naútico Ibiza,,marina,,https://www.clubnauticoibiza.com/,,,,,,,,openstreetmap
club_nautico_6617327,Club Naútico.,marina,38.9783642,1.3017953,way,583377688,https://www.openstreetmap.org/way/583377688,Club Naútico.,,,,,,,,,,,,openstreetmap
club_nautic_d03492d,Club Nàutic,marina,39.8629057,-0.0743011,way,37921150,https://www.openstreetmap.org/way/37921150,Club Nàutic,,marina,,,,,,,,,,openstreetmap
club_nautic_1ef4237,Club Nàutic,marina,40.552934,0.5317493,node,860925167,https://www.openstreetmap.org/node/860925167,Club Nàutic,,,,,,,,,,,,openstreetmap
club_nautic_costa_brava_cncb_b74f512,Club Nàutic Costa Brava CNCB,marina,41.8425587,3.127505,way,230073053,https://www.openstreetmap.org/way/230073053,Club Nàutic Costa Brava CNCB,,,,,,,,,,,,openstreetmap
club_nautic_de_cala_bona_07750bc,Club nàutic de Cala Bona,marina,39.6144151,3.3922234,way,360945438,https://www.openstreetmap.org/way/360945438,Club nàutic de Cala Bona,,marina,,,,,,,,,,openstreetmap
club_nautic_de_cala_gamba_04d0e48,Club Nàutic de Cala Gamba,marina,39.5472477,2.6945916,way,427366155,https://www.openstreetmap.org/way/427366155,Club Nàutic de Cala Gamba,,marina,,,,,,,,,,openstreetmap
club_nautic_de_cala_rajada_449cfb1,Club Nàutic de Cala Rajada,marina,39.7103382,3.4639771,way,704461814,https://www.openstreetmap.org/way/704461814,Club Nàutic de Cala Rajada,,marina,,https://www.cncr.es/,+34 971 565067;+34 971 564019,09,,,,,,openstreetmap
club_nautic_de_la_colonia_de_sant_pere_a3ea27c,Club Nàutic de la Colònia de Sant Pere,marina,39.7370791,3.2740854,way,277787777,https://www.openstreetmap.org/way/277787777,Club Nàutic de la Colònia de Sant Pere,,marina,,https://cncoloniasp.com/ca/home-catala/,+34 971 589118,,,,,,,openstreetmap
